,LocInfo,TECHNO,LAC,CI,COORD_X,COORD_Y,LON,LAT,min_dt,max_dt,NOM_SITE
404,0102f81003169e9f,3G,790,40607,602280,2415080,2.3674880000000003,48.734219,2019/03/15,2019/06/22,ORLY
412,0102f8100317250a,3G,791,9482,599347,2432734,2.327605,48.892891999999996,2019/03/15,2019/06/22,GUY_MOQUET_METRO_L13
413,0102f810031769e2,3G,791,27106,602751,2427403,2.373966,48.844975,2019/03/15,2019/06/22,GARE_DE_LYON_RER_A
427,0102f81003fada86,3G,1018,55942,601257,2431026,2.3536330000000003,48.877541,2019/03/15,2019/06/22,PETITS_HOTELS
428,0102f81003fb0ad7,3G,1019,2775,601804,2428911,2.361077,48.858532000000004,2019/03/15,2019/06/22,MUSEE_PICASSO
429,0102f81003fb0bdc,3G,1019,3036,601795,2425906,2.3609419999999997,48.831524,2019/03/15,2019/06/22,LYCEE_CHASLES
431,0102f81003fb1a8b,3G,1019,6795,603690,2426470,2.386745,48.836585,2019/03/15,2019/06/22,GARE_BERCY_BIS
433,0102f81003fb1f38,3G,1019,7992,601647,2429312,2.35894,48.862136,2019/03/15,2019/06/22,CENTRAL_FT_BONDEVILLE_PARIS_INDOOR
434,0102f81003fb2924,3G,1019,10532,603073,2426666,2.378346,48.83835,2019/03/15,2019/06/22,POPB_INDOOR_ANNEXES
436,0102f81003fb4c2e,3G,1019,19502,603591,2429220,2.38542,48.861302,2019/03/15,2019/06/22,PLACE_METIVIER
437,0102f81003fb5342,3G,1019,21314,603916,2433176,2.389883,48.896853,2019/03/15,2019/06/22,CITE_DES_SCIENCES
438,0102f81003fb7565,3G,1019,30053,601443,2429019,2.35616,48.859503000000004,2019/03/15,2019/06/22,ARCHIVES
439,0102f81003fb78b8,3G,1019,30904,603030,2425245,2.37775,48.825579,2019/03/15,2019/06/22,MASSENA_CHEVALERET
440,0102f81003fba418,3G,1019,42008,601886,2431880,2.362207,48.885215,2019/03/15,2019/06/22,PLACE_DE_LA_CHAPELLE
441,0102f81003fbb289,3G,1019,45705,602728,2426334,2.373646,48.835368,2019/03/15,2019/06/22,JAMES_JOYCE_PROV
444,0102f81003fbd18d,3G,1019,53645,602389,2432321,2.369064,48.889177000000004,2019/03/15,2019/06/22,MARCHE_RIQUET
453,0102f8100404788a,3G,1028,30858,597685,2428685,2.304975,48.856499,2019/03/15,2019/06/22,RAPP_BOSQUET_BIS
454,0102f8100404dcdd,3G,1028,56541,598365,2428296,2.314238,48.853004999999996,2019/03/15,2019/06/22,BRETEUIL_BIS
455,0102f8100404fb88,3G,1028,64392,596942,2427047,2.294867,48.841774,2019/03/15,2019/06/22,SQUARE_LAMBERT
457,0102f81004051945,3G,1029,6469,598273,2430551,2.312976,48.873271,2019/03/15,2019/06/22,OSM_CA_VILLAGE_PARIS_INDOOR
459,0102f81004052a1f,3G,1029,10783,596741,2429875,2.2921080000000003,48.867189,2019/03/15,2019/06/22,RUE_LAURISTON
462,0102f81004053670,3G,1029,13936,597190,2430915,2.298218,48.876538000000004,2019/03/15,2019/06/22,OSM_EDF_WAGRAM_PARIS_INDOOR
464,0102f81004057b3e,3G,1029,31550,597930,2430398,2.308303,48.871895,2019/03/15,2019/06/22,LA_BOETIE
465,0102f8100405c915,3G,1029,51477,596268,2429032,2.285672,48.859609999999996,2019/03/15,2019/06/22,BIR_HAKEIM
905,0102f81016114d3d,3G,5649,19773,601251,2429827,2.353548,48.866765,2019/03/15,2019/06/22,MM_GAITE_LYRIQUE_EVENT_2016
967,0102f81024033071,3G,9219,12401,615576,2444884,2.549246,49.001894,2019/03/15,2019/06/22,ROISSY_SERVAIR
971,0102f81024035ed3,3G,9219,24275,613210,2444420,2.516916,48.997777,2019/03/15,2019/06/22,ROISSY_EN_FRANCE
1218,0102f810620465a3,3G,25092,26019,600988,2431464,2.349968,48.881478,2019/03/15,2019/06/22,OSM_TEXTUEL_LAMINE_PARIS_INDOOR
1219,0102f8106204f8bf,3G,25092,63679,599644,2432770,2.3316529999999998,48.893215999999995,2019/03/15,2019/06/22,GUY_MOQUET
1220,0102f81062065563,3G,25094,21859,599099,2430559,2.32423,48.873345,2019/03/15,2019/06/22,MATHURINS_ARCADE
1225,0102f8106207f232,3G,25095,62002,601459,2425497,2.3563669999999997,48.827849,2019/03/15,2019/06/22,AVENUE_ITALIE
1404,0102f81075045543,3G,29956,21827,599558,2427172,2.3304869999999998,48.842905,2019/03/15,2019/06/22,CHAPLAIN
1405,0102f81075045c4d,3G,29956,23629,599544,2427081,2.3302970000000003,48.842087,2019/03/15,2019/06/22,CHAUMIERE
1406,0102f810750494c5,3G,29956,38085,600640,2427307,2.345221,48.844118,2019/03/15,2019/06/22,ESTRAPADE_EU
1407,0102f8107504eee5,3G,29956,61157,598738,2427074,2.319322,48.842023,2019/03/15,2019/06/22,GARE_MONTPARNASSE_TER
1409,0102f81096fe7468,3G,38654,29800,598226,2429767,2.312339,48.866225,2019/03/15,2019/06/22,MM_GP_FIAC_2011_EVENT
1410,0102f810970200fe,3G,38658,254,597888,2431026,2.307728,48.877539,2019/03/15,2019/06/22,HAUSSMAN_BIS
2046,8102f810016e5b0c,4G,1,24009484,602579,2427599,2.371625,48.846738,2019/03/15,2019/06/22,AUSTERLITZ_BIS
2047,8102f810016e630d,4G,1,24011533,597094,2430018,2.296916,48.868476,2019/03/15,2019/06/22,BASSANO
2048,8102f810016e8602,4G,1,24020482,601133,2432353,2.351946,48.889468,2019/03/15,2019/06/22,CHATEAU_ROUGE
2050,8102f810016e9a07,4G,1,24025607,600810,2432313,2.347544,48.889109000000005,2019/03/15,2019/06/22,CUSTINE_EU
2052,8102f810016ef70a,4G,1,24049418,601210,2425345,2.352977,48.826484,2019/03/15,2019/06/22,MAISON_BLANCHE
2053,8102f810016f1102,4G,1,24056066,599210,2427071,2.325749,48.841997,2019/03/15,2019/06/22,ODESSA
2054,8102f810016f4702,4G,1,24069890,598503,2425308,2.316129,48.82615,2019/03/15,2019/06/22,PORTE_DE_CHATILLON
2055,8102f810016f6d05,4G,1,24079621,603690,2425903,2.38674,48.831489000000005,2019/03/15,2019/06/22,RUE_KESSEL
2058,8102f810016fd705,4G,1,24106757,598947,2432404,2.3221540000000003,48.889926,2019/03/15,2019/06/22,RUE_LACROIX
2088,8102f81001718005,4G,1,24215557,602462,2414443,2.369957,48.728493,2019/03/15,2019/06/22,ORLY_SUD_PISTES_EST
2092,8102f81001720901,4G,1,24250625,602908,2427755,2.376106,48.848138,2019/03/15,2019/06/22,PLACE_ALIGRE_EU
2093,8102f81001720c0a,4G,1,24251402,597913,2430278,2.308072,48.870816,2019/03/15,2019/06/22,PONTHIEU
2095,8102f81001721f01,4G,1,24256257,598417,2432650,2.31493,48.892136,2019/03/15,2019/06/22,PONT_CARDINET
2099,8102f8100172cb04,4G,1,24300292,599674,2427009,2.332067,48.841440000000006,2019/03/15,2019/06/22,MONTPARNASSE_BIS
2100,8102f8100172da07,4G,1,24304135,601975,2416084,2.363348,48.743244,2019/03/15,2019/06/22,ORLY_AIR_INTER_BIS
2103,8102f81001730b02,4G,1,24316674,595221,2428553,2.271417,48.855298,2019/03/15,2019/06/22,SQUARE_MOZART
2107,8102f81001735808,4G,1,24336392,597993,2427870,2.309174,48.849175,2019/03/15,2019/06/22,VILLA_DE_SAXE
2109,8102f81001744f05,4G,1,24399621,599736,2429985,2.332909,48.868187,2019/03/15,2019/06/22,RUE_D_ANTIN
2129,8102f8100176480f,4G,1,24528911,602525,2426585,2.370884,48.837624,2019/03/15,2019/06/22,TUNNEL_GSMR_AUSTERLITZ_GARE
2130,8102f81001764a05,4G,1,24529413,600419,2429201,2.342213,48.86114,2019/03/15,2019/06/22,QUAI_LOUVRE
2137,8102f81001779005,4G,1,24612869,601945,2425613,2.3629830000000003,48.828891,2019/03/15,2019/06/22,PARC_DE_CHOISY_BIS
2142,8102f8100177ee01,4G,1,24636929,598239,2429760,2.312516,48.866162,2019/03/15,2019/06/22,GRAND_PALAIS
2159,8102f8100179c206,4G,1,24756742,600445,2430301,2.342568,48.871026,2019/03/15,2019/06/22,GRANDS_BOULEVARDS_METRO_L8_L9
2165,8102f810017a880c,4G,1,24807436,598585,2432911,2.317218,48.894482,2019/03/15,2019/06/22,RERC_P_CLICHY
2170,8102f810017b8301,4G,1,24871681,596816,2430354,2.293126,48.871495,2019/03/15,2019/06/22,KLEBER_METRO_L6
2176,8102f810017d3001,4G,1,24981505,600313,2430058,2.340769,48.868843,2019/03/15,2019/06/22,BOURSE_METRO_L3
2538,0102f810031621c9,3G,790,8649,601645,2414485,2.358857,48.728873,2019/03/15,2019/06/22,ORLY_OUEST_PISTES
2543,0102f81003165a26,3G,790,23078,601645,2414485,2.358857,48.728873,2019/03/15,2019/06/22,ORLY_OUEST_PISTES
2556,0102f81003173939,3G,791,14649,600742,2428319,2.3466110000000002,48.853213000000004,2019/03/15,2019/06/22,SAINT_MICHEL_RER_B
2557,0102f8100317640e,3G,791,25614,599210,2430198,2.325743,48.8701,2019/03/15,2019/06/22,MADELEINE_METRO_L8_L12
2558,0102f8100317a4fa,3G,791,42234,600241,2430390,2.339789,48.871826,2019/03/15,2019/06/22,RICHELIEU_DROUOT_METRO_L8_L9
2559,0102f8100317a55d,3G,791,42333,602774,2427486,2.3742799999999997,48.845721000000005,2019/03/15,2019/06/22,GARE_DE_LYON_METRO_L1
2569,0102f81003fb0542,3G,1019,1346,603010,2431464,2.3775209999999998,48.881471999999995,2019/03/15,2019/06/22,AVENUE_SECRETAN
2571,0102f81003fb18fc,3G,1019,6396,604146,2432238,2.393009,48.888422,2019/03/15,2019/06/22,STADE_LADOUMEGUE
2573,0102f81003fb1f72,3G,1019,8050,601440,2428486,2.356118,48.854713000000004,2019/03/15,2019/06/22,LOUIS_PHILIPPE
2575,0102f81003fb2c98,3G,1019,11416,603591,2429220,2.38542,48.861302,2019/03/15,2019/06/22,PLACE_METIVIER
2579,0102f81003fba182,3G,1019,41346,601513,2426220,2.357104,48.834346999999994,2019/03/15,2019/06/22,MAIRIE_DU_13EME
2580,0102f81003fbaa01,3G,1019,43521,604185,2431735,2.393535,48.883901,2019/03/15,2019/06/22,RUE_DE_TOULOUSE
2582,0102f81003fbc630,3G,1019,50736,601036,2427828,2.3506139999999998,48.8488,2019/03/15,2019/06/22,PARADIS_LATIN
2583,0102f81003fbcca3,3G,1019,52387,603690,2425903,2.38674,48.831489000000005,2019/03/15,2019/06/22,RUE_KESSEL
2593,0102f8100404530a,3G,1028,21258,598795,2428515,2.3200939999999997,48.854974,2019/03/15,2019/06/22,CITE_VANEAU
2594,0102f8100404740e,3G,1028,29710,599473,2428202,2.329328,48.852162,2019/03/15,2019/06/22,CHAISE_RECAMIER
2595,0102f8100404c341,3G,1028,49985,597457,2427021,2.30188,48.841543,2019/03/15,2019/06/22,ST_LAMBERT_IDF
2596,0102f810040506ff,3G,1029,1791,595204,2426778,2.2712060000000003,48.839346,2019/03/15,2019/06/22,LE_PONANT
2597,0102f81004053136,3G,1029,12598,597900,2429645,2.3078990000000004,48.865127,2019/03/15,2019/06/22,OSM_LVMH_BAYARD_INDOOR
2598,0102f81004057569,3G,1029,30057,599664,2429789,2.331928,48.866425,2019/03/15,2019/06/22,MARCHE_ST_HONORE
2599,0102f81004058d58,3G,1029,36184,595360,2427813,2.273318,48.848649,2019/03/15,2019/06/22,MOLITOR_EU
2600,0102f8100405919d,3G,1029,37277,596039,2427765,2.282565,48.848222,2019/03/15,2019/06/22,CC_BEAUGRENELLE_PARIS
2601,0102f8100405b2cd,3G,1029,45773,598112,2430500,2.3107830000000003,48.872811999999996,2019/03/15,2019/06/22,LA_BOETIE_PERCIER_BIS
2602,0102f8100405c618,3G,1029,50712,600048,2430580,2.337159,48.873534,2019/03/15,2019/06/22,LAFFITTE_NODE_B_2
2603,0102f8100405efce,3G,1029,61390,598765,2430480,2.3196790000000003,48.872634000000005,2019/05/26,2019/06/22,OSMSLA_GAN_ASTORG
3018,0102f810160fc77e,3G,5647,51070,598574,2431589,2.317073,48.882601,2019/03/15,2019/06/22,DAMES
3019,0102f81016110aac,3G,5649,2732,601206,2428667,2.3529310000000003,48.85634,2019/03/15,2019/06/22,MM_MAIRIE_PARIS_GBA_2014_EVENT
3020,0102f810161112c1,3G,5649,4801,601271,2429800,2.3538200000000002,48.866523,2019/03/15,2019/06/22,REAUMUR_SEBASTOPOL
3021,0102f810161132a7,3G,5649,12967,600484,2429550,2.343099,48.864277,2019/03/15,2019/06/22,RIVOLI
3192,0102f81038051663,3G,14341,5731,601922,2424970,2.3626669999999996,48.823112,2019/03/15,2019/06/22,JARDIN_MIRO
3301,0102f81062040449,3G,25092,1097,599561,2433152,2.330521,48.896649,2019/03/15,2019/06/22,LEIBNITZ
3302,0102f81062045cff,3G,25092,23807,600326,2431915,2.340948,48.885532,2019/03/15,2019/06/22,SQUARE_WILLETTE
3303,0102f81062047496,3G,25092,29846,600536,2433424,2.343811,48.899094,2019/03/15,2019/06/22,FRANCIS_DE_CROISSET
3304,0102f8106204aa3f,3G,25092,43583,599973,2432350,2.336137,48.889441,2019/03/15,2019/06/22,CAULAINCOURT_BIS
3305,0102f81062060bda,3G,25094,3034,599365,2430254,2.327854,48.870604,2019/03/15,2019/06/22,RUE_DE_SEZE_BIS
3306,0102f81062074878,3G,25095,18552,598503,2425308,2.316129,48.82615,2019/03/15,2019/06/22,BACHELARD
3307,0102f81062074fc9,3G,25095,20425,601070,2424300,2.351069,48.817091999999995,2019/03/15,2019/06/22,GENTILLY
3308,0102f81062076be7,3G,25095,27623,596007,2426005,2.282146,48.832404,2019/03/15,2019/06/22,PORTE_DE_SEVRES
3309,0102f8106207ce3d,3G,25095,52797,601048,2425806,2.350773,48.830627,2019/03/15,2019/06/22,CORVISART
3503,0102f81075041f53,3G,29956,8019,599020,2426413,2.323163,48.836083,2019/03/15,2019/06/22,VERCINGETORIX_EU
3504,0102f810750430e8,3G,29956,12520,599298,2427919,2.326946,48.849618,2019/03/15,2019/06/22,RENNES_CHERCHE_MIDI
3505,0102f81075043c04,3G,29956,15364,600253,2426453,2.33995,48.836443,2019/03/15,2019/06/22,CASSINI_PROV
3506,0102f81075044995,3G,29956,18837,600480,2427625,2.3430419999999996,48.846976,2019/03/15,2019/06/22,PANTHEON_1_MB
3507,0102f81075045539,3G,29956,21817,600876,2427052,2.348434,48.841826,2019/03/15,2019/06/22,MONGE
3508,0102f81075046cec,3G,29956,27884,597930,2426620,2.308322,48.83794,2019/03/15,2019/06/22,DUTOT
3509,0102f8107504ff56,3G,29956,65366,600679,2427811,2.345752,48.848648,2019/03/15,2019/06/22,LUXEMBOURG
4146,8102f810016e3508,4G,1,23999752,596566,2426046,2.289756,48.832775,2019/03/15,2019/06/22,CROIX_NIVERT
4148,8102f810016e6f06,4G,1,24014598,603488,2433342,2.38405,48.898348,2019/03/15,2019/06/22,BLD_MAC_DONALD
4150,8102f810016edd0c,4G,1,24042764,600480,2431240,2.3430459999999997,48.879466,2019/03/15,2019/06/22,LA_FAYETTE
4151,8102f810016ef10a,4G,1,24047882,597754,2431610,2.305899,48.882787,2019/03/15,2019/06/22,LYCEE_CARNOT
4152,8102f810016efc09,4G,1,24050697,601905,2432386,2.3624680000000002,48.889762,2019/03/15,2019/06/22,MARX_DORMOY_EU
4153,8102f810016f1f08,4G,1,24059656,600965,2430020,2.349652,48.868501,2019/03/15,2019/06/22,PASSAGE_DE_CLERY
4155,8102f810016f2601,4G,1,24061441,603911,2428929,2.389776,48.858684000000004,2019/03/15,2019/06/22,PHILIPPE_AUGUSTE_MENIL
4156,8102f810016f4302,4G,1,24068866,600803,2430443,2.3474459999999997,48.872302000000005,2019/03/15,2019/06/22,PROVENCE_POISSONNIERES
4157,8102f810016f6d02,4G,1,24079618,603690,2425903,2.38674,48.831489000000005,2019/03/15,2019/06/22,RUE_KESSEL
4158,8102f810016f7306,4G,1,24081158,601213,2430752,2.353032,48.875079,2019/03/15,2019/06/22,RUE_DE_PARADIS
4174,8102f81001708706,4G,1,24151814,600755,2429890,2.346791,48.867332,2019/03/15,2019/06/22,CITE_MONTMARTRE
4214,8102f81001739e04,4G,1,24354308,596343,2425818,2.286722,48.830725,2019/03/15,2019/06/22,PARC_EXPOS_HALL_2_INDOOR
4220,8102f81001748e07,4G,1,24415751,599659,2427880,2.331862,48.849268,2019/03/15,2019/06/22,SENAT_BONAPARTE
4228,8102f81001752902,4G,1,24455426,613666,2444132,2.523135,48.995179,2019/03/15,2019/06/22,ROISSY_FRET
4242,8102f81001769a04,4G,1,24549892,598503,2425308,2.316129,48.82615,2019/03/15,2019/06/22,BACHELARD
4254,8102f8100177fe08,4G,1,24641032,600496,2427630,2.34326,48.847021000000005,2019/05/19,2019/06/22,MAIRIE_DU_5_EME
4256,8102f81001781902,4G,1,24647938,596957,2426190,2.2950779999999997,48.834072,2019/03/15,2019/06/22,RUE_DES_MORILLONS
4279,8102f810017c1401,4G,1,24908801,596275,2430194,2.285757,48.870053999999996,2019/03/15,2019/06/22,VICTOR_HUGO_METRO_L2
4281,8102f810017da508,4G,1,25011464,596574,2425818,2.2898669999999997,48.830726,2019/03/15,2019/06/22,PARC_EXPOS_VERS_HALL4_HALL5
4721,0102f8100316554e,3G,790,21838,601660,2414440,2.359061,48.728468,2019/03/15,2019/06/22,ORLY_OUEST_INDOOR
4738,0102f81003170819,3G,791,2073,600136,2431804,2.338359,48.884534,2019/03/15,2019/06/22,ABBESSES_METRO_L12
4739,0102f8100317177d,3G,791,6013,599522,2429573,2.3299939999999997,48.864484000000004,2019/03/15,2019/06/22,TUILERIES_METRO_L1
4741,0102f81003174ec6,3G,791,20166,597106,2430583,2.2970759999999997,48.873554,2019/03/15,2019/06/22,CDG_ETOILE_METRO_FRIEDLAND
4742,0102f8100317e9f0,3G,791,59888,602774,2427486,2.3742799999999997,48.845721000000005,2019/03/15,2019/06/22,GARE_DE_LYON_METRO_L1
4743,0102f810031837ee,3G,792,14318,602525,2426585,2.370884,48.837624,2019/03/15,2019/06/22,TUNNEL_GSMR_AUSTERLITZ_GARE
4751,0102f81003fa1df4,3G,1018,7668,601615,2430288,2.358508,48.870908,2019/03/15,2019/06/22,RUE_DU_CHATEAU
4752,0102f81003fa62e8,3G,1018,25320,601257,2431026,2.3536330000000003,48.877541,2019/03/15,2019/06/22,PETITS_HOTELS
4753,0102f81003fac723,3G,1018,50979,602805,2430692,2.374723,48.874534999999995,2019/03/15,2019/06/22,AVENUE_VELLEFAUX
4754,0102f81003fac77d,3G,1018,51069,602743,2430977,2.3738799999999998,48.877096,2019/03/15,2019/06/22,COLONEL_FABIEN
4755,0102f81003fb0b79,3G,1019,2937,604437,2430066,2.396952,48.8689,2019/03/15,2019/06/22,PERE_LACHAISE_BIS
4756,0102f81003fb11b0,3G,1019,4528,603796,2427021,2.3881930000000002,48.841537,2019/03/15,2019/06/22,DUGOMMIER
4757,0102f81003fb1995,3G,1019,6549,603902,2430659,2.389669,48.874233000000004,2019/03/15,2019/06/22,PYRENEES
4758,0102f81003fb2b98,3G,1019,11160,603935,2431959,2.3901310000000002,48.885915999999995,2019/03/15,2019/06/22,PORTE_CHAUMONT
4762,0102f81003fb8efc,3G,1019,36604,601905,2432386,2.3624680000000002,48.889762,2019/03/15,2019/06/22,MARX_DORMOY_EU
4763,0102f81003fb9dc3,3G,1019,40387,601992,2427008,2.363629,48.841428,2019/03/15,2019/06/22,PONT_DE_TOLBIAC_BIS
4764,0102f81003fbb98e,3G,1019,47502,601532,2428770,2.3573720000000002,48.857265000000005,2019/03/15,2019/06/22,TEMPLE_TRESOR
4768,0102f81004042116,3G,1028,8470,597939,2428477,2.308436,48.85463,2019/03/15,2019/06/22,INVALIDES
4769,0102f81004042d15,3G,1028,11541,599302,2428864,2.326998,48.858111,2019/03/15,2019/06/22,MUSEE_ANATOMIE
4770,0102f8100404e294,3G,1028,58004,598365,2428296,2.314238,48.853004999999996,2019/03/15,2019/06/22,BRETEUIL_BIS
4771,0102f8100404e3ab,3G,1028,58283,597082,2427927,2.296768,48.849684,2019/03/15,2019/06/22,LA_MOTTE_PICQUET
4773,0102f81004055384,3G,1029,21380,597415,2430982,2.301283,48.877142,2019/03/15,2019/06/22,MM_HELLOSHOW_2017
4774,0102f8100405674c,3G,1029,26444,595966,2427797,2.281571,48.848509,2019/03/15,2019/06/22,OSM_ARDAGH_ANDRE_CITROEN_INDOOR
4776,0102f81004057f2d,3G,1029,32557,600370,2430798,2.3415470000000003,48.875493,2019/03/15,2019/06/22,NOTRE_DAME_DE_LORETTE
4777,0102f8100405bc02,3G,1029,48130,596774,2430060,2.292557,48.868852000000004,2019/03/15,2019/06/22,PEROUSE_BELLOY
4778,0102f8100405cd9e,3G,1029,52638,599560,2430060,2.330511,48.86886,2019/03/15,2019/06/22,HOTEL_HYATT_INDOOR
5226,0102f81016111360,3G,5649,4960,600833,2429211,2.347852,48.86123,2019/03/15,2019/06/22,FNAC_FORUM_PDV1
5227,0102f8101611fb97,3G,5649,64407,601027,2429403,2.350495,48.862955,2019/03/15,2019/06/22,SEBASTOPOL_TRUANDERIE_BIS
5228,0102f8101611fb98,3G,5649,64408,601027,2429403,2.350495,48.862955,2019/03/15,2019/06/22,SEBASTOPOL_TRUANDERIE_BIS
5536,0102f8106204ba85,3G,25092,47749,601471,2431878,2.3565509999999996,48.885197999999995,2019/03/15,2019/06/22,SQUARE_LEON
5537,0102f8106204cbdf,3G,25092,52191,600384,2432087,2.3417380000000003,48.887078,2019/03/15,2019/06/22,CHEVALIER_BARRE
5538,0102f8106204d2a6,3G,25092,53926,599751,2432029,2.333112,48.886557,2019/03/15,2019/06/22,CIMETIERE_MONTMARTRE
5539,0102f8106204efc5,3G,25092,61381,600418,2432320,2.342202,48.889171999999995,2019/03/15,2019/06/22,LAMARCK_CENIS
5540,0102f81062053d26,3G,25093,15654,602444,2432447,2.369814,48.890309,2019/03/15,2019/06/22,MM_104_SOSH_EVENT_2012
5541,0102f8106206001f,3G,25094,31,598514,2431189,2.316257,48.879005,2019/03/15,2019/06/22,VILLIERS
5542,0102f81062062cd2,3G,25094,11474,599526,2430958,2.330047,48.876931,2019/03/15,2019/06/22,OSM_GOOGLE_PARIS_LONDRES_INDOOR
5543,0102f81062073fc2,3G,25095,16322,601958,2424880,2.363157,48.822303000000005,2019/03/15,2019/06/22,JARDIN_MIRO_BIS
5549,0102f8106207f46a,3G,25095,62570,597090,2425740,2.2968919999999997,48.830028000000006,2019/03/15,2019/06/22,PORTE_PLAISANCE
5719,0102f81075047ede,3G,29956,32478,599106,2428090,2.324331,48.851155,2019/03/15,2019/06/22,BON_MARCHE_1_INDOOR
5720,0102f8107504a9b9,3G,29956,43449,599298,2427919,2.326946,48.849618,2019/03/15,2019/06/22,RENNES_CHERCHE_MIDI
6313,8102f810016df407,4G,1,23983111,600593,2430516,2.344585,48.872959,2019/03/15,2019/06/22,BOULE_ROUGE
6314,8102f810016df70b,4G,1,23983883,600484,2429550,2.343099,48.864277,2019/03/15,2019/06/22,RIVOLI
6317,8102f810016e3407,4G,1,23999495,598325,2426195,2.313702,48.834122,2019/03/15,2019/06/22,VOUILLE
6319,8102f810016e7608,4G,1,24016392,595555,2428900,2.275962,48.85842,2019/03/15,2019/06/22,BOULAINVILLIERS
6320,8102f810016e7e02,4G,1,24018434,597623,2431469,2.3041150000000004,48.881519,2019/03/15,2019/06/22,CARNOT
6321,8102f810016e8e06,4G,1,24022534,603916,2433176,2.389883,48.896853,2019/03/15,2019/06/22,CITE_DES_SCIENCES
6322,8102f810016ee206,4G,1,24044038,602860,2431812,2.37548,48.8846,2019/03/15,2019/06/22,LAUMIERE
6323,8102f810016ee209,4G,1,24044041,602860,2431812,2.37548,48.8846,2019/03/15,2019/06/22,LAUMIERE
6324,8102f810016ef104,4G,1,24047876,597754,2431610,2.305899,48.882787,2019/03/15,2019/06/22,LYCEE_CARNOT
6325,8102f810016f2e07,4G,1,24063495,604447,2429607,2.397084,48.864774,2019/03/15,2019/06/22,PLACE_MARTIN_NADAUD
6326,8102f810016f550c,4G,1,24073484,595524,2428244,2.275547,48.852524,2019/03/15,2019/06/22,RADIO_FRANCE
6327,8102f810016f5609,4G,1,24073737,595630,2428614,2.276987,48.85585,2019/03/15,2019/06/22,RAYNOUARD_BRUNEAU
6328,8102f810016f580b,4G,1,24074251,601598,2430641,2.358278,48.87408,2019/03/15,2019/06/22,RECOLLETS
6329,8102f810016f5d03,4G,1,24075523,602862,2432193,2.375509,48.888024,2019/03/15,2019/06/22,RICQUET
6330,8102f810016f630a,4G,1,24077066,603018,2428439,2.377609,48.854285,2019/03/15,2019/06/22,RUE_BASFROI
6331,8102f810016f6809,4G,1,24078345,600744,2431629,2.346644,48.882961,2019/03/15,2019/06/22,RUE_CONDORCET
6332,8102f810016f7b05,4G,1,24083205,600645,2429029,2.345291,48.859594,2019/03/15,2019/06/22,SAMARITAINE
6335,8102f810016f970b,4G,1,24090379,597183,2428194,2.2981409999999998,48.852084000000005,2019/03/15,2019/06/22,SUFFREN
6354,8102f81001724106,4G,1,24264966,602935,2431306,2.3764979999999998,48.880052,2019/03/15,2019/06/22,MATHURIN_MOREAU
6357,8102f81001730103,4G,1,24314115,613210,2444420,2.516916,48.997777,2019/03/15,2019/06/22,ROISSY_EN_FRANCE
6360,8102f81001738501,4G,1,24347905,597082,2427927,2.296768,48.849684,2019/03/15,2019/06/22,LA_MOTTE_PICQUET
6390,8102f81001779009,4G,1,24612873,601945,2425613,2.3629830000000003,48.828891,2019/03/15,2019/06/22,PARC_DE_CHOISY_BIS
6398,8102f8100178c104,4G,1,24690948,597096,2430658,2.296939,48.874228,2019/03/15,2019/06/22,CDG_ETOILE_METRO_L1
6399,8102f8100178cd01,4G,1,24694017,601925,2427045,2.362717,48.841761,2019/03/15,2019/06/22,PONT_DE_TOLBIAC_TER
6413,8102f810017ba40b,4G,1,24880139,599158,2429106,2.325037,48.860286,2019/03/15,2019/06/22,RERC_M_ORSAY
6424,8102f810017db701,4G,1,25016065,602114,2431458,2.365312,48.881422,2019/03/15,2019/06/22,LOUIS_BLANC_METRO_L7_7BIS
6830,0102f8100316ea24,3G,790,59940,602462,2414443,2.369957,48.728493,2019/03/15,2019/06/22,ORLY_SUD_PISTES_EST
6833,0102f81003170cea,3G,791,3306,600704,2429102,2.346095,48.86025,2019/06/09,2019/06/22,CHATELET_METRO_L14
6834,0102f81003170cea,3G,791,3306,600729,2429111,2.346435,48.860331,2019/03/15,2019/06/08,CHATELET_METRO_L14
6837,0102f8100317a845,3G,791,43077,601465,2431456,2.356468,48.881405,2019/03/15,2019/06/22,GARE_DU_NORD_METRO_L5
6838,0102f8100317f1da,3G,791,61914,597106,2430583,2.2970759999999997,48.873554,2019/03/15,2019/06/22,CDG_ETOILE_METRO_FRIEDLAND
6844,0102f81003fa4563,3G,1018,17763,602805,2430692,2.374723,48.874534999999995,2019/03/15,2019/06/22,AVENUE_VELLEFAUX
6845,0102f81003fa568b,3G,1018,22155,603233,2429819,2.380548,48.866687,2019/03/15,2019/06/22,PARMENTIER_BIS
6846,0102f81003faace3,3G,1018,44259,601547,2430927,2.357584,48.876651,2019/03/15,2019/06/22,ALSACE_NOVEMBRE
6850,0102f81003fb124b,3G,1019,4683,604490,2430472,2.397678,48.872547999999995,2019/03/15,2019/06/22,SQ_MENILMONTANT_BIS
6853,0102f81003fb4670,3G,1019,18032,604270,2429782,2.394674,48.866347999999995,2019/03/15,2019/06/22,ANNAM
6854,0102f81003fb55d0,3G,1019,21968,603238,2432772,2.3806380000000003,48.893226,2019/03/15,2019/06/22,LA_VILLETTE
6855,0102f81003fb5f66,3G,1019,24422,604437,2430066,2.396952,48.8689,2019/03/15,2019/06/22,PERE_LACHAISE_BIS
6856,0102f81003fb649d,3G,1019,25757,603618,2428520,2.385782,48.85501,2019/03/15,2019/06/22,CHARONNE
6857,0102f81003fb6797,3G,1019,26519,603242,2425558,2.3806380000000003,48.828390999999996,2019/03/15,2019/06/22,PORTE_DE_BERCY_BIS
6858,0102f81003fb6aa3,3G,1019,27299,604022,2429802,2.391296,48.86653,2019/03/15,2019/06/22,MENILMONTANT
6864,0102f81003fbcbed,3G,1019,52205,604185,2431735,2.393535,48.883901,2019/03/15,2019/06/22,RUE_DE_TOULOUSE
6865,0102f81003fbd1da,3G,1019,53722,602876,2428138,2.375673,48.851581,2019/03/15,2019/06/22,SAINT_ANTOINE
6866,0102f81003fbddab,3G,1019,56747,603690,2425903,2.38674,48.831489000000005,2019/03/15,2019/06/22,RUE_KESSEL
6869,0102f810040475d2,3G,1028,30162,596501,2428299,2.288852,48.853024,2019/03/15,2019/06/22,OSM_AG2R_LA_MONDIALE_PARIS_GRENELLE_IND
6870,0102f81004049eab,3G,1028,40619,599195,2428354,2.325542,48.853528000000004,2019/03/15,2019/06/22,VARENNE_PLANCHE
6871,0102f810040513d6,3G,1029,5078,594568,2426718,2.262547,48.838801000000004,2019/03/15,2019/06/22,ST_EXUPERY
6873,0102f810040542a5,3G,1029,17061,597072,2430186,2.296615,48.869986,2019/03/15,2019/06/22,NEWTON
6874,0102f8100405571e,3G,1029,22302,599952,2429185,2.335852,48.860997,2019/03/15,2019/06/22,MM_LOUVRE_SUEZ_EVENT_2014
6876,0102f810040563d0,3G,1029,25552,598927,2429979,2.321888,48.868132,2019/03/15,2019/06/22,OSMSLA_CONCORDE_RF
6877,0102f81004058025,3G,1029,32805,597502,2430482,2.3024720000000003,48.872648,2019/03/15,2019/06/22,CHATEAUBRIAND
6878,0102f8100405ae91,3G,1029,44689,599952,2429185,2.335852,48.860997,2019/03/15,2019/06/22,MM_LOUVRE_SUEZ_EVENT_2014
6879,0102f8100405d0d6,3G,1029,53462,595809,2428886,2.2794220000000003,48.858295,2019/03/15,2019/06/22,PASSY
6880,0102f8100405d6a7,3G,1029,54951,595075,2427749,2.269438,48.848071000000004,2019/03/15,2019/06/22,PLACE_JEAN_LORRAIN
6881,0102f8100405d8e6,3G,1029,55526,597369,2430077,2.300662,48.869008,2019/03/15,2019/06/22,PRINCE_GALLES
6882,0102f8100405ecf5,3G,1029,60661,596125,2429224,2.283723,48.861335,2019/03/15,2019/06/22,DOUMER
6883,0102f8100405fb1e,3G,1029,64286,598845,2430203,2.32077,48.870145,2019/03/15,2019/06/22,OSMSLA_MADELEINE_RF
7309,0102f810160f404f,3G,5647,16463,597716,2431722,2.305381,48.883793,2019/03/15,2019/06/22,VILLIERS_LOUTIL
7310,0102f810160f8e30,3G,5647,36400,599007,2432718,2.322971,48.892748,2019/03/15,2019/06/22,CAPITAINE_LAGACHE
7311,0102f81016111288,3G,5649,4744,600484,2429550,2.343099,48.864277,2019/03/15,2019/06/22,RIVOLI
7312,0102f8101611635b,3G,5649,25435,600729,2429309,2.346436,48.862111,2019/03/15,2019/06/22,CC_FORUM_DES_HALLES_INDOOR
7313,0102f8101611855c,3G,5649,34140,600920,2429764,2.349038,48.8662,2019/03/15,2019/06/22,RUE_GRENETA
7324,0102f8101614b734,3G,5652,46900,607662,2426284,2.440819,48.834879,2019/03/15,2019/06/22,OSMSLA_FORT_VINCENNES_RF
7393,0102f81024034ce3,3G,9219,19683,613210,2444420,2.516916,48.997777,2019/03/15,2019/06/22,ROISSY_EN_FRANCE
7402,0102f8102403c6e9,3G,9219,50921,614503,2445915,2.534626,49.011184,2019/03/15,2019/06/22,ROISSY_ZONE_TECHNIQUE
7627,0102f8106204850d,3G,25092,34061,600326,2431915,2.340948,48.885532,2019/03/15,2019/06/22,SQUARE_WILLETTE
7628,0102f8106204e20b,3G,25092,57867,600481,2431616,2.34306,48.882845,2019/03/15,2019/06/22,MM_ORANGE_ROCKCORPS
7629,0102f81062061742,3G,25094,5954,598825,2431006,2.320495,48.877361,2019/03/15,2019/06/22,OSM_BPI_PARIS_INDOOR
7630,0102f810620639e5,3G,25094,14821,599035,2430473,2.3233580000000003,48.872572,2019/03/15,2019/06/22,PASQUIER
7631,0102f81062065e6c,3G,25094,24172,599388,2431518,2.328166,48.881964,2019/03/15,2019/06/22,BALLU_CLICHY
7634,0102f8106207833c,3G,25095,33596,601070,2424300,2.351069,48.817091999999995,2019/03/15,2019/06/22,GENTILLY
7828,0102f810750485a0,3G,29956,34208,600380,2426120,2.341679,48.83345,2019/03/15,2019/06/22,AUGUSTE_BLANQUI
7829,0102f8107504cba8,3G,29956,52136,598677,2426602,2.318493,48.837781,2019/03/15,2019/06/22,PLACE_DE_CATALOGNE_RE
7830,0102f8107504ef27,3G,29956,61223,599542,2427318,2.330269,48.844217,2019/03/15,2019/06/22,DAME_BEUVE
7832,0102f81096084ab0,3G,38408,19120,603770,2433040,2.3878909999999998,48.895632,2019/03/15,2019/06/22,CITE_DES_SCIENCES_EXPO
8474,8102f810016dff04,4G,1,23985924,599530,2431250,2.330101,48.879554999999996,2019/03/15,2019/06/22,SQUARE_MONCEY
8477,8102f810016e3806,4G,1,24000518,599449,2427565,2.3290029999999997,48.846437,2019/03/15,2019/06/22,EHESS
8478,8102f810016e410b,4G,1,24002827,599072,2426210,2.323872,48.834258,2019/03/15,2019/06/22,ALESIA_MAINE
8480,8102f810016e4f06,4G,1,24006406,598677,2426602,2.318493,48.837781,2019/03/15,2019/06/22,PLACE_DE_CATALOGNE_RE
8481,8102f810016e5f02,4G,1,24010498,602805,2430692,2.374723,48.874534999999995,2019/03/15,2019/06/22,AVENUE_VELLEFAUX
8483,8102f810016ec308,4G,1,24036104,597536,2430946,2.3029319999999998,48.876818,2019/03/15,2019/06/22,HOCHE
8486,8102f810016efe03,4G,1,24051203,597165,2427422,2.297901,48.845145,2019/03/15,2019/06/22,MEILHAC
8487,8102f810016efe05,4G,1,24051205,597165,2427422,2.297901,48.845145,2019/03/15,2019/06/22,MEILHAC
8489,8102f810016f360b,4G,1,24065547,603591,2429220,2.38542,48.861302,2019/03/15,2019/06/22,PLACE_METIVIER
8491,8102f810016f9906,4G,1,24090886,604483,2430827,2.3975869999999997,48.875739,2019/03/15,2019/06/22,TELEGRAPHE
8492,8102f810016fa90c,4G,1,24094988,603440,2428170,2.383355,48.851865999999994,2019/03/15,2019/06/22,FAIDHERBE_CHALIGNY
8537,8102f81001737903,4G,1,24344835,599818,2424855,2.334029,48.822081,2019/03/15,2019/06/22,PARC_MONTSOURIS
8539,8102f8100173ad06,4G,1,24358150,601660,2414440,2.359061,48.728468,2019/03/15,2019/06/22,ORLY_OUEST_INDOOR
8545,8102f81001746c09,4G,1,24407049,601733,2432279,2.3601229999999997,48.888801,2019/03/15,2019/06/22,MARX_DORMOY
8557,8102f81001753d02,4G,1,24460546,602751,2427403,2.373966,48.844975,2019/03/15,2019/06/22,GARE_DE_LYON_RER_A
8558,8102f81001755403,4G,1,24466435,599522,2429573,2.3299939999999997,48.864484000000004,2019/03/15,2019/06/22,TUILERIES_METRO_L1
8579,8102f8100178330b,4G,1,24654603,597642,2429780,2.304383,48.86634,2019/03/15,2019/06/22,RUE_TREMOILLE
8582,8102f81001785701,4G,1,24663809,599302,2430870,2.326995,48.87614,2019/03/15,2019/06/22,AGENCE_ORANGE_AMSTERDAM
8592,8102f81001799f02,4G,1,24747778,598552,2427630,2.3167869999999997,48.847019,2019/03/15,2019/06/22,DUROC_METRO_L10_13
8593,8102f8100179c106,4G,1,24756486,598364,2430608,2.3142150000000004,48.873783,2019/03/15,2019/06/22,MIROMESNIL_METRO_L9_L13
8595,8102f810017a3e0b,4G,1,24788491,613550,2445290,2.521588,49.005588,2019/03/15,2019/06/22,PARC_DE_ROISSY
8596,8102f810017a3e0f,4G,1,24788495,613550,2445290,2.521588,49.005588,2019/03/15,2019/06/22,PARC_DE_ROISSY
8598,8102f810017ab601,4G,1,24819201,601281,2429002,2.353954,48.859351000000004,2019/03/15,2019/06/22,TEMPLE_PLATRE
8606,8102f810017ba512,4G,1,24880402,602525,2426585,2.370884,48.837624,2019/03/15,2019/06/22,TUNNEL_GSMR_AUSTERLITZ_GARE
8611,8102f810017e9c01,4G,1,25074689,600556,2430858,2.344081,48.876032,2019/03/15,2019/06/22,CADET_METRO_L7
8612,8102f810017f7302,4G,1,25129730,601626,2430926,2.35866,48.876642,2019/03/15,2019/06/22,GARE_DE_L_EST_METRO_L4
9077,0102f81003170bc3,3G,791,3011,599210,2430198,2.325743,48.8701,2019/03/15,2019/06/22,MADELEINE_METRO_L8_L12
9079,0102f81003177258,3G,791,29272,599408,2430601,2.32844,48.873721999999994,2019/03/15,2019/06/22,HAVRE_CAUMARTIN_METRO_L3
9080,0102f8100317916c,3G,791,37228,602774,2427486,2.3742799999999997,48.845721000000005,2019/03/15,2019/06/22,GARE_DE_LYON_METRO_L1
9081,0102f8100317d2a9,3G,791,53929,597096,2430658,2.296939,48.874228,2019/03/15,2019/06/22,CDG_ETOILE_METRO_L1
9083,0102f8100317fc68,3G,791,64616,601215,2430154,2.3530580000000003,48.869704,2019/03/15,2019/06/22,STRASBOURG_METRO_L8
9086,0102f81003189b35,3G,792,39733,599158,2429106,2.325037,48.860286,2019/03/15,2019/06/22,RERC_M_ORSAY
9091,0102f81003fa1e86,3G,1018,7814,602820,2429786,2.374921,48.866392,2019/03/15,2019/06/22,RUE_ST_MAUR
9095,0102f81003fb5962,3G,1019,22882,603591,2429220,2.38542,48.861302,2019/03/15,2019/06/22,PLACE_METIVIER
9097,0102f81003fb89a9,3G,1019,35241,603856,2431234,2.389047,48.879401,2019/03/15,2019/06/22,COMPANS
9101,0102f81003fe339f,3G,1022,13215,603671,2428523,2.386503,48.855037,2019/03/15,2019/06/22,CHARONNE_PETITE_PIERRE
9107,0102f8100404222b,3G,1028,8747,596511,2428378,2.2889880000000002,48.853734,2019/03/15,2019/06/22,BRAZZAVILLE_BIS
9108,0102f810040449cb,3G,1028,18891,596935,2426585,2.2947759999999997,48.837621999999996,2019/03/15,2019/06/22,HOPITAL_CONVENTION
9109,0102f81004045165,3G,1028,20837,597514,2427854,2.302651,48.849028999999994,2019/03/15,2019/06/22,CAMBRONNE
9110,0102f81004046144,3G,1028,24900,596400,2427020,2.287488,48.841528000000004,2019/03/15,2019/06/22,BOUCICAUT
9111,0102f8100404938f,3G,1028,37775,596942,2427047,2.294867,48.841774,2019/03/15,2019/06/22,SQUARE_LAMBERT
9112,0102f8100404cc11,3G,1028,52241,596566,2426046,2.289756,48.832775,2019/03/15,2019/06/22,CROIX_NIVERT
9113,0102f8100404e3b8,3G,1028,58296,597443,2429025,2.301677,48.859553000000005,2019/03/15,2019/06/22,QUAI_BRANLY_EU
9114,0102f81004050e52,3G,1029,3666,595621,2427549,2.276875,48.846278000000005,2019/03/15,2019/06/22,SEINE_MIRABEAU
9115,0102f81004053828,3G,1029,14376,600048,2430580,2.337159,48.873534,2019/03/15,2019/06/22,LAFFITTE
9117,0102f810040576e4,3G,1029,30436,598508,2429119,2.316183,48.860402,2019/03/15,2019/06/22,ASSEMBLEE_NATIONALE
9118,0102f81004057dad,3G,1029,32173,600294,2430236,2.3405110000000002,48.870442,2019/03/15,2019/06/22,VIVIENNE_ST_MARC_BIS
9531,0102f810160f05e2,3G,5647,1506,598284,2433218,2.3131150000000003,48.897240000000004,2019/03/15,2019/06/22,STADE_LEON_BIANCOTTO
9533,0102f810160f96bd,3G,5647,38589,596815,2431048,2.293108,48.877732,2019/03/15,2019/06/22,ACACIAS_TRIOMPHE
9534,0102f8101611a702,3G,5649,42754,600391,2429794,2.341832,48.86647,2019/03/15,2019/06/22,RUE_DU_MAIL
9839,0102f81062030050,3G,25091,80,598378,2431663,2.314402,48.883265,2019/03/15,2019/06/22,THE_PHONE_HOUSE_LEVIS_PDV2
9840,0102f81062038e77,3G,25091,36471,600029,2430392,2.3369,48.871844,2019/03/15,2019/06/22,OPERA_HANOVRE_BIS_PROVISOIRE
9841,0102f810620420c5,3G,25092,8389,600340,2432917,2.341139,48.894537,2019/03/15,2019/06/22,POTEAU_RUISSEAU
9843,0102f81062044999,3G,25092,18841,600821,2431932,2.3476939999999997,48.885684000000005,2019/03/15,2019/06/22,ROCHECHOUART
9847,0102f81062060029,3G,25094,41,598334,2431024,2.313805,48.877522,2019/03/15,2019/06/22,PLACE_DE_NARVICK
9848,0102f8106206fb2d,3G,25094,64301,598000,2430945,2.309254,48.876811,2019/03/15,2019/06/22,OSM_CAPITAL_8_MESSINE_MURAT
9850,0102f81062077154,3G,25095,29012,600517,2424723,2.343543,48.820894,2019/03/15,2019/06/22,CITE_UNIVERSITAIRE
9851,0102f810620791bb,3G,25095,37307,596343,2425818,2.286722,48.830725,2019/03/15,2019/06/22,PARC_EXPOS_HALL_2_INDOOR
9852,0102f8106207a521,3G,25095,42273,602726,2425062,2.373611,48.823935999999996,2019/03/15,2019/06/22,REGNAULT
9853,0102f8106207dc7d,3G,25095,56445,596007,2426005,2.282146,48.832404,2019/03/15,2019/06/22,PORTE_DE_SEVRES
10047,0102f8107504173c,3G,29956,5948,598860,2427850,2.320981,48.848997,2019/03/15,2019/06/22,KERING_PARIS07_INDOOR
10048,0102f81075043083,3G,29956,12419,598582,2427011,2.317198,48.841456,2019/03/15,2019/06/22,GARE_MONTPARNASSE_BIS
10049,0102f81075048126,3G,29956,33062,600640,2427307,2.345221,48.844118,2019/03/15,2019/06/22,ESTRAPADE_EU
10050,0102f8107504ca60,3G,29956,51808,598910,2427204,2.3216639999999997,48.843191999999995,2019/03/15,2019/06/22,ARRIVEE
10051,0102f8107504e76d,3G,29956,59245,599946,2425465,2.335771,48.827563,2019/03/15,2019/06/22,AVENUE_REILLE
10690,8102f810016e010c,4G,1,23986444,600179,2429348,2.3389439999999997,48.862462,2019/03/15,2019/06/22,CROIX_DES_PETITS_CHAMPS
10693,8102f810016e3905,4G,1,24000773,597251,2426326,2.29908,48.835295,2019/03/15,2019/06/22,VAUGIRARD_DUVAL
10695,8102f810016e8203,4G,1,24019459,604396,2426542,2.396357,48.837228,2019/03/15,2019/06/22,CHARENTON
10696,8102f810016ea108,4G,1,24027400,600272,2427380,2.34021,48.844774,2019/03/15,2019/06/22,ECOLE_DES_MINES
10697,8102f810016eb303,4G,1,24032003,603202,2427191,2.380106,48.843068,2019/03/15,2019/06/22,GARE_DE_LYON
10698,8102f810016eef09,4G,1,24047369,600679,2427811,2.345752,48.848648,2019/03/15,2019/06/22,LUXEMBOURG
10699,8102f810016f040c,4G,1,24052748,597723,2430187,2.305484,48.869997999999995,2019/03/15,2019/06/22,MONTAIGNE
10700,8102f810016f0c07,4G,1,24054791,601804,2428911,2.361077,48.858532000000004,2019/03/15,2019/06/22,MUSEE_PICASSO
10701,8102f810016f1908,4G,1,24058120,601036,2427828,2.3506139999999998,48.8488,2019/03/15,2019/06/22,PARADIS_LATIN
10703,8102f810016f6206,4G,1,24076806,604610,2428691,2.399294,48.856541,2019/03/15,2019/06/22,RUE_BAGNOLET_BIS
10705,8102f810016f8203,4G,1,24084995,604490,2430472,2.397678,48.872547999999995,2019/03/15,2019/06/22,SQ_MENILMONTANT_BIS
10706,8102f810016f850b,4G,1,24085771,602196,2430990,2.366427,48.877215,2019/03/15,2019/06/22,SQUARE_VARLIN
10739,8102f81001723c0b,4G,1,24263691,599782,2426205,2.333538,48.834214,2019/03/15,2019/06/22,DENFERT_ST_JACQUES
10742,8102f8100172c90c,4G,1,24299788,602666,2426565,2.372804,48.837444,2019/03/15,2019/06/22,QUAI_DE_LA_RAPEE_BIS
10747,8102f8100173710c,4G,1,24342796,601958,2424880,2.363157,48.822303000000005,2019/03/15,2019/06/22,JARDIN_MIRO_BIS
10751,8102f8100174540c,4G,1,24400908,599724,2431127,2.332745,48.87845,2019/04/14,2019/06/22,AUMALE
10752,8102f8100174710c,4G,1,24408332,598946,2425330,2.322159,48.826349,2019/03/15,2019/06/22,SQUARE_CHATILLON
10774,8102f81001769a09,4G,1,24549897,598503,2425308,2.316129,48.82615,2019/03/15,2019/06/22,BACHELARD
10791,8102f8100179c108,4G,1,24756488,598364,2430608,2.3142150000000004,48.873783,2019/03/15,2019/06/22,MIROMESNIL_METRO_L9_L13
10802,8102f810017d0603,4G,1,24970755,596180,2426000,2.2845009999999997,48.832359999999994,2019/03/15,2019/06/22,PARC_EXPOS_VERS_HALL1
10807,8102f810017ec901,4G,1,25086209,601132,2427176,2.3519200000000002,48.842940000000006,2019/03/15,2019/06/22,PLACE_MONGE_METRO_L7
11228,0102f810031753dd,3G,791,21469,604763,2429977,2.401392,48.868097,2019/03/15,2019/06/22,PELLEPORT_METRO_L3BIS
11229,0102f8100317556e,3G,791,21870,601564,2430870,2.357815,48.876139,2019/03/15,2019/06/22,GARE_DE_L_EST_METRO_L5
11236,0102f81003fa1172,3G,1018,4466,601724,2429647,2.3599900000000003,48.865147,2019/03/15,2019/06/22,TEMPLE_PERREE
11239,0102f81003fb1801,3G,1019,6145,601440,2428486,2.356118,48.854713000000004,2019/03/15,2019/06/22,LOUIS_PHILIPPE
11241,0102f81003fb2edc,3G,1019,11996,603076,2426606,2.378386,48.837811,2019/03/15,2019/06/22,POPB
11243,0102f81003fb388d,3G,1019,14477,604270,2429782,2.394674,48.866347999999995,2019/03/15,2019/06/22,ANNAM
11245,0102f81003fb5cd5,3G,1019,23765,603403,2431760,2.382879,48.88413,2019/03/15,2019/06/22,MAIRIE_DU_19EME
11248,0102f81003fb77fe,3G,1019,30718,601976,2428517,2.3634180000000002,48.85499,2019/03/15,2019/06/22,RUE_DE_BIRAGUE
11249,0102f81003fb7a6a,3G,1019,31338,602728,2426334,2.373646,48.835368,2019/03/15,2019/06/22,JAMES_JOYCE_PROV
11250,0102f81003fb8627,3G,1019,34343,601930,2427987,2.362789,48.850227000000004,2019/03/15,2019/06/22,SCHOMBERG
11255,0102f81003fbe795,3G,1019,59285,603238,2432772,2.3806380000000003,48.893226,2019/03/15,2019/06/22,LA_VILLETTE
11257,0102f81003fe5970,3G,1022,22896,600142,2427194,2.338439,48.843103,2019/03/15,2019/06/22,SAINT_MICHEL_LUXEMBOURG
11263,0102f8100403b5b3,3G,1027,46515,599830,2429056,2.33419,48.859837,2019/03/15,2019/06/22,TPIM_TUILERIES
11264,0102f81004044e60,3G,1028,20064,595905,2427016,2.280748,48.841489,2019/03/15,2019/06/22,UNIVERSITE_PARIS_I
11265,0102f81004046990,3G,1028,27024,596707,2427380,2.291665,48.844766,2019/03/15,2019/06/22,COMMERCE
11266,0102f810040472f6,3G,1028,29430,597183,2428194,2.2981409999999998,48.852084000000005,2019/03/15,2019/06/22,SUFFREN
11267,0102f81004049a5d,3G,1028,39517,596501,2428299,2.288852,48.853024,2019/03/15,2019/06/22,OSM_AG2R_LA_MONDIALE_PARIS_GRENELLE_IND
11268,0102f8100404a3f6,3G,1028,41974,597450,2428831,2.301773,48.85781,2019/03/15,2019/06/22,RUE_AUGEREAU
11269,0102f8100404b8ff,3G,1028,47359,598795,2428515,2.3200939999999997,48.854974,2019/03/15,2019/06/22,CITE_VANEAU
11270,0102f81004052711,3G,1029,10001,595555,2428900,2.275962,48.85842,2019/03/15,2019/06/22,BOULAINVILLIERS
11272,0102f81004054a8d,3G,1029,19085,597900,2429645,2.3078990000000004,48.865127,2019/03/15,2019/06/22,OSM_LVMH_BAYARD_INDOOR
11273,0102f81004055613,3G,1029,22035,595630,2428614,2.276987,48.85585,2019/03/15,2019/06/22,RAYNOUARD_BRUNEAU
11274,0102f81004056020,3G,1029,24608,594092,2428393,2.256042,48.853851,2019/03/15,2019/06/22,LAC_SUPERIEUR
11275,0102f81004056511,3G,1029,25873,595774,2426429,2.27897,48.836213,2019/03/15,2019/06/22,HELIPORT
11277,0102f81004059901,3G,1029,39169,595524,2428244,2.275547,48.852524,2019/03/15,2019/06/22,RADIO_FRANCE
11278,0102f8100405ecbc,3G,1029,60604,597706,2430286,2.305252,48.870888,2019/03/15,2019/06/22,PARKING_CHAMPS_ELYSEES
11279,0102f8100405ed5c,3G,1029,60764,598260,2430680,2.312798,48.87443,2019/03/15,2019/06/22,OSM_SANOFI_PARIS_INDOOR
11280,0102f8100405f3f1,3G,1029,62449,598602,2430447,2.317459,48.872337,2019/03/15,2019/06/22,OSMSLA_MIROMESNIL_RF
11727,0102f810160f6096,3G,5647,24726,597125,2430550,2.297335,48.873258,2019/03/15,2019/06/22,TPIM_ETOILE
11728,0102f810160f8eca,3G,5647,36554,598284,2433218,2.3131150000000003,48.897240000000004,2019/03/15,2019/06/22,STADE_LEON_BIANCOTTO
11729,0102f81016111108,3G,5649,4360,600715,2428426,2.346244,48.854175,2019/03/15,2019/06/22,HOTEL_DIEU
11730,0102f810161147cf,3G,5649,18383,600783,2429772,2.347172,48.866271999999995,2019/03/15,2019/06/22,MONTORGUEIL
11795,0102f81024035ef6,3G,9219,24310,616240,2446080,2.558362,49.012625,2019/03/15,2019/06/22,ROISSY_T3_INDOOR
11801,0102f8102403b78f,3G,9219,46991,613300,2442200,2.5180759999999998,48.977825,2019/03/15,2019/06/22,VILLEPINTE_TREMBLAY_CAROLE
11808,0102f8102403f43a,3G,9219,62522,614998,2446357,2.541404,49.015144,2019/03/15,2019/06/22,ROISSY_1_PROVIS_2_PISTES_ET_PARKINGS
12031,0102f81062045a52,3G,25092,23122,600458,2432954,2.342748,48.894870000000004,2019/03/15,2019/06/22,PLACE_ALBERT_KAHN
12032,0102f81062046643,3G,25092,26179,600326,2431915,2.340948,48.885532,2019/03/15,2019/06/22,SQUARE_WILLETTE
12033,0102f8106206a1ef,3G,25094,41455,599012,2431445,2.3230419999999996,48.881307,2019/03/15,2019/06/22,EUROPE_BIS
12034,0102f810620719e2,3G,25095,6626,598503,2425308,2.316129,48.82615,2019/03/15,2019/06/22,PORTE_DE_CHATILLON
12036,0102f8106207363c,3G,25095,13884,597862,2425401,2.307403,48.826984,2019/03/15,2019/06/22,PORTE_BRANCION
12216,0102f81075043f13,3G,29956,16147,599020,2426413,2.323163,48.836083,2019/03/15,2019/06/22,VERCINGETORIX_EU
12217,0102f81075047904,3G,29956,30980,598853,2427595,2.3208860000000002,48.846706,2019/03/15,2019/06/22,HOPITAL_NECKER
12871,8102f810016df206,4G,1,23982598,599172,2430609,2.325224,48.873794000000004,2019/03/15,2019/06/22,MATHURINS
12872,8102f810016dff0a,4G,1,23985930,599530,2431250,2.330101,48.879554999999996,2019/03/15,2019/06/22,SQUARE_MONCEY
12875,8102f810016e350b,4G,1,23999755,596566,2426046,2.289756,48.832775,2019/03/15,2019/06/22,CROIX_NIVERT
12877,8102f810016e6202,4G,1,24011266,597518,2426653,2.3027130000000002,48.838235,2019/03/15,2019/06/22,BARRUEL
12878,8102f810016e760b,4G,1,24016395,595555,2428900,2.275962,48.85842,2019/03/15,2019/06/22,BOULAINVILLIERS
12879,8102f810016ea904,4G,1,24029444,603600,2427878,2.3855310000000003,48.84924,2019/03/15,2019/06/22,FAIDHERBE_CHALIGNY_S_RE
12880,8102f810016ec60c,4G,1,24036876,600120,2425800,2.33814,48.830574,2019/03/15,2019/06/22,HOPITAL_STE_ANNE
12881,8102f810016edd0b,4G,1,24042763,600480,2431240,2.3430459999999997,48.879466,2019/03/15,2019/06/22,LA_FAYETTE
12883,8102f810016efc07,4G,1,24050695,601905,2432386,2.3624680000000002,48.889762,2019/03/15,2019/06/22,MARX_DORMOY_EU
12884,8102f810016efd0c,4G,1,24050956,603030,2425245,2.37775,48.825579,2019/03/15,2019/06/22,MASSENA_CHEVALERET
12885,8102f810016f0504,4G,1,24052996,603788,2427391,2.388087,48.844862,2019/03/15,2019/06/22,MONTGALLET
12887,8102f810016f5904,4G,1,24074500,599298,2427919,2.326946,48.849618,2019/03/15,2019/06/22,RENNES_CHERCHE_MIDI
12888,8102f810016f5e09,4G,1,24075785,600821,2431932,2.3476939999999997,48.885684000000005,2019/03/15,2019/06/22,ROCHECHOUART
12889,8102f810016f660a,4G,1,24077834,599779,2431531,2.333494,48.882081,2019/03/15,2019/06/22,RUE_CHAPTAL
12890,8102f810016f7402,4G,1,24081410,602820,2429786,2.374921,48.866392,2019/03/15,2019/06/22,RUE_ST_MAUR
12891,8102f810016f9505,4G,1,24089861,595278,2427410,2.272206,48.845026000000004,2019/03/15,2019/06/22,STE_PERINE
12895,8102f810016fd704,4G,1,24106756,598947,2432404,2.3221540000000003,48.889926,2019/03/15,2019/06/22,RUE_LACROIX
12927,8102f8100172df07,4G,1,24305415,603124,2432939,2.379086,48.894728,2019/03/15,2019/06/22,CURIAL
12931,8102f8100173af06,4G,1,24358662,602340,2414380,2.3683,48.727927,2019/03/15,2019/06/22,ORLY_SUD_INDOOR
12932,8102f8100173c802,4G,1,24365058,603073,2426666,2.378346,48.83835,2019/03/15,2019/06/22,POPB_INDOOR_ANNEXES
12934,8102f81001746c06,4G,1,24407046,601733,2432279,2.3601229999999997,48.888801,2019/03/15,2019/06/22,MARX_DORMOY
12935,8102f81001746c07,4G,1,24407047,601733,2432279,2.3601229999999997,48.888801,2019/03/15,2019/06/22,MARX_DORMOY
12940,8102f81001753c09,4G,1,24460297,596886,2430774,2.294077,48.87527,2019/03/15,2019/06/22,CDG_ETOILE_RER_A
12941,8102f81001754d0a,4G,1,24464650,599587,2430383,2.330879,48.871763,2019/03/15,2019/06/22,AUBER_RER_A
12952,8102f81001764206,4G,1,24527366,615009,2446256,2.5415509999999997,49.014236,2019/03/15,2019/06/22,ROISSY_T1
12956,8102f8100176c501,4G,1,24560897,601206,2428667,2.3529310000000003,48.85634,2019/03/15,2019/06/22,MM_MAIRIE_GBA_2015_EVENT
12973,8102f81001781c0c,4G,1,24648716,597167,2430401,2.297908,48.871919,2019/03/15,2019/06/22,VERNET_RE
12976,8102f8100178cd0a,4G,1,24694026,601925,2427045,2.362717,48.841761,2019/03/15,2019/06/22,PONT_DE_TOLBIAC_TER
12984,8102f810017a1606,4G,1,24778246,601190,2430132,2.3527169999999997,48.869507,2019/03/15,2019/06/22,STRASBOURG_METRO_L4
12990,8102f810017c5b01,4G,1,24926977,600810,2432840,2.347545,48.893845,2019/03/15,2019/06/22,SIMPLON_METRO_L4
13422,0102f8100317caa5,3G,791,51877,604281,2427744,2.394804,48.848032,2019/03/15,2019/06/22,NATION_METRO_L1_2_6
13423,0102f8100317dff5,3G,791,57333,599739,2431731,2.332948,48.883878,2019/03/15,2019/06/22,BLANCHE_METRO_L2
13431,0102f81003fa1004,3G,1018,4100,603399,2430188,2.382812,48.870002,2019/03/15,2019/06/22,BLD_BELLEVILLE
13432,0102f81003fae630,3G,1018,58928,602863,2430242,2.37551,48.870490000000004,2019/03/15,2019/06/22,GONCOURT
13434,0102f81003fb134b,3G,1019,4939,602296,2433394,2.367802,48.89882,2019/03/15,2019/06/22,PTE_D_AUBERVILLIERS
13436,0102f81003fb61bd,3G,1019,25021,604738,2426906,2.401018,48.840497,2019/03/15,2019/06/22,DAUMESNIL
13437,0102f81003fb641f,3G,1019,25631,601905,2432386,2.3624680000000002,48.889762,2019/03/15,2019/06/22,MARX_DORMOY_EU
13438,0102f81003fb7226,3G,1019,29222,601616,2426617,2.358508,48.837915,2019/03/15,2019/06/22,PARIS_VI_CHU
13439,0102f81003fb82c3,3G,1019,33475,603911,2428929,2.389776,48.858684000000004,2019/03/15,2019/06/22,PHILIPPE_AUGUSTE_MENIL
13444,0102f81003fbb885,3G,1019,47237,603403,2431760,2.382879,48.88413,2019/03/15,2019/06/22,MAIRIE_DU_19EME
13446,0102f81003fbd177,3G,1019,53623,604022,2429802,2.391296,48.86653,2019/03/15,2019/06/22,MENILMONTANT
13448,0102f81003fbdc5b,3G,1019,56411,603018,2428439,2.377609,48.854285,2019/03/15,2019/06/22,RUE_BASFROI
13449,0102f81003fbe6e1,3G,1019,59105,603488,2433342,2.38405,48.898348,2019/03/15,2019/06/22,BLD_MAC_DONALD
13450,0102f81003fbe7b2,3G,1019,59314,603107,2426694,2.378809,48.838602,2019/03/15,2019/06/22,POPB_INDOOR_TRIBUNES
13451,0102f81003fea504,3G,1022,42244,602400,2428059,2.36919,48.850873,2019/03/15,2019/06/22,BASTILLE
13454,0102f81004040b05,3G,1028,2821,597082,2427927,2.296768,48.849684,2019/03/15,2019/06/22,LA_MOTTE_PICQUET
13455,0102f81004046b48,3G,1028,27464,598657,2428700,2.3182139999999998,48.856636,2019/03/15,2019/06/22,BABYLONE_BIS
13456,0102f81004048411,3G,1028,33809,597518,2426653,2.3027130000000002,48.838235,2019/03/15,2019/06/22,BARRUEL
13457,0102f81004052160,3G,1029,8544,597094,2430018,2.296916,48.868476,2019/03/15,2019/06/22,BASSANO
13459,0102f81004053e39,3G,1029,15929,596631,2430209,2.290607,48.870191,2019/03/15,2019/06/22,KLEBER
13460,0102f81004056137,3G,1029,24887,599687,2430188,2.332241,48.870011,2019/03/15,2019/06/22,OPERA_BIS
13461,0102f81004058d89,3G,1029,36233,600065,2429734,2.3373909999999998,48.865930999999996,2019/03/15,2019/06/22,MONTPENSIER
13462,0102f8100405a360,3G,1029,41824,597908,2429869,2.3080060000000002,48.86714,2019/03/15,2019/06/22,CLEMENT_MAROT
13464,0102f8100405bfe7,3G,1029,49127,598586,2429942,2.317242,48.867798,2019/03/15,2019/06/22,OSM_VIP_STUDIO_GABRIEL_INDOOR
13465,0102f8100405d2a2,3G,1029,53922,593665,2429894,2.250204,48.867337,2019/03/15,2019/06/22,HIPPODROME_IDF
13894,0102f81016111cb6,3G,5649,7350,600419,2429201,2.342213,48.86114,2019/03/15,2019/06/22,QUAI_LOUVRE
13895,0102f81016112f10,3G,5649,12048,600645,2429029,2.345291,48.859594,2019/03/15,2019/06/22,SAMARITAINE
13896,0102f81016116250,3G,5649,25168,600457,2428150,2.3427290000000003,48.851695,2019/03/15,2019/06/22,CLUNY_LA_SORBONNE
13897,0102f8101611f153,3G,5649,61779,601281,2429002,2.353954,48.859351000000004,2019/03/15,2019/06/22,TEMPLE_PLATRE
13902,0102f8101614e16a,3G,5652,57706,608497,2425714,2.4521759999999997,48.829746,2019/05/05,2019/06/22,LAC_DES_MINIMES
14219,0102f81062030c8b,3G,25091,3211,597947,2432027,2.308527,48.886534999999995,2019/03/15,2019/06/22,MALESHERBES_TOCQUEVILLE
14220,0102f810620601be,3G,25094,446,599060,2431308,2.323697,48.880076,2019/03/15,2019/06/22,EUROPE
14221,0102f81062072bca,3G,25095,11210,598503,2425308,2.316129,48.82615,2019/03/15,2019/06/22,BACHELARD
14222,0102f81062074360,3G,25095,17248,602136,2425013,2.36558,48.823496999999996,2019/03/15,2019/06/22,AVENUE_IVRY
14223,0102f81062078243,3G,25095,33347,599818,2424855,2.334029,48.822081,2019/03/15,2019/06/22,PARC_MONTSOURIS
14224,0102f8106207872b,3G,25095,34603,597090,2425740,2.2968919999999997,48.830028000000006,2019/03/15,2019/06/22,PORTE_PLAISANCE
14226,0102f8106207a7e5,3G,25095,42981,601516,2425047,2.357141,48.823805,2019/03/15,2019/06/22,MOULIN_DE_LA_POINTE
14381,0102f81075041721,3G,29956,5921,599449,2427565,2.3290029999999997,48.846437,2019/03/15,2019/06/22,EHESS
14382,0102f81075042111,3G,29956,8465,599685,2426420,2.332217,48.836146,2019/03/15,2019/06/22,DENFERT_ROCHEREAU
14383,0102f81075048720,3G,29956,34592,600272,2427380,2.34021,48.844774,2019/03/15,2019/06/22,ECOLE_DES_MINES
14384,0102f81075048d0b,3G,29956,36107,599674,2427009,2.332067,48.841440000000006,2019/03/15,2019/06/22,MONTPARNASSE_BIS
15008,8102f810016e3a05,4G,1,24001029,595204,2426778,2.2712060000000003,48.839346,2019/03/15,2019/06/22,LE_PONANT
15010,8102f810016e5b0d,4G,1,24009485,602579,2427599,2.371625,48.846738,2019/03/15,2019/06/22,AUSTERLITZ_BIS
15011,8102f810016e8f0a,4G,1,24022794,600517,2424723,2.343543,48.820894,2019/03/15,2019/06/22,CITE_UNIVERSITAIRE
15012,8102f810016e9a02,4G,1,24025602,600810,2432313,2.347544,48.889109000000005,2019/03/15,2019/06/22,CUSTINE_EU
15017,8102f810016eeb08,4G,1,24046344,600068,2428086,2.337432,48.85112,2019/03/15,2019/06/22,LOBINEAU
15019,8102f810016f0c0b,4G,1,24054795,601804,2428911,2.361077,48.858532000000004,2019/03/15,2019/06/22,MUSEE_PICASSO
15020,8102f810016f2c01,4G,1,24062977,602108,2432650,2.365236,48.892134000000006,2019/03/15,2019/06/22,PLACE_HEBERT
15022,8102f810016f5b0b,4G,1,24075019,604565,2427380,2.3986669999999997,48.844759,2019/03/15,2019/06/22,REUILLY
15023,8102f810016f6a04,4G,1,24078852,601615,2430288,2.358508,48.870908,2019/03/15,2019/06/22,RUE_DU_CHATEAU
15024,8102f810016f8a0a,4G,1,24087050,600135,2431290,2.338345,48.879915000000004,2019/03/15,2019/06/22,ST_GEORGES_NAVARIN
15026,8102f810016fcc04,4G,1,24103940,598645,2432108,2.3180389999999997,48.887265,2019/03/15,2019/06/22,BROCHANT
15068,8102f81001731304,4G,1,24318724,598937,2430958,2.322021,48.87693,2019/03/15,2019/06/22,CESAR_CAIRE
15072,8102f8100173a603,4G,1,24356355,598800,2426950,2.3201669999999996,48.840908,2019/03/15,2019/06/22,GARE_MONTPARNASSE_1_INDOOR
15089,8102f81001755005,4G,1,24465413,603497,2427620,2.3841259999999997,48.846922,2019/03/15,2019/06/22,REUILLY_DIDEROT_METRO_L1
15101,8102f8100176420c,4G,1,24527372,615009,2446256,2.5415509999999997,49.014236,2019/03/15,2019/06/22,ROISSY_T1
15102,8102f81001769a06,4G,1,24549894,598503,2425308,2.316129,48.82615,2019/03/15,2019/06/22,BACHELARD
15111,8102f81001779006,4G,1,24612870,601945,2425613,2.3629830000000003,48.828891,2019/03/15,2019/06/22,PARC_DE_CHOISY_BIS
15112,8102f8100177ee03,4G,1,24636931,598239,2429760,2.312516,48.866162,2019/03/15,2019/06/22,GRAND_PALAIS
15113,8102f81001780203,4G,1,24642051,598081,2430958,2.3103580000000004,48.876928,2019/03/15,2019/06/22,HAUSSMAN_TER
15125,8102f8100179c306,4G,1,24756998,600990,2431715,2.349996,48.883734000000004,2019/03/15,2019/06/22,BARBES_METRO_L4
15128,8102f810017a0c0b,4G,1,24775691,601564,2430870,2.357815,48.876139,2019/03/15,2019/06/22,GARE_DE_L_EST_METRO_L5
15137,8102f810017b6401,4G,1,24863745,600213,2425937,2.3394060000000003,48.831804999999996,2019/03/15,2019/06/22,SOFITEL_SAINT_JACQUES_INDOOR
15138,8102f810017bb101,4G,1,24883457,602698,2427105,2.373243,48.842296999999995,2019/03/15,2019/06/22,GARE_DE_LYON_RER_D_BIS
15147,8102f810017e6408,4G,1,25060360,603145,2431889,2.379364,48.885290999999995,2019/03/15,2019/06/22,LAUMIERE_METRO_L5
15148,8102f810017f0602,4G,1,25101826,601322,2428914,2.3545119999999997,48.85856,2019/03/15,2019/06/22,OSM_GALERIE LAFAYETTE_PARIS 4
15574,0102f810031629ed,3G,790,10733,601975,2416084,2.363348,48.743244,2019/03/15,2019/06/22,ORLY_AIR_INTER_BIS
15585,0102f810031696ac,3G,790,38572,601645,2414485,2.358857,48.728873,2019/03/15,2019/06/22,ORLY_OUEST_PISTES
15597,0102f81003173fe2,3G,791,16354,601132,2427176,2.3519200000000002,48.842940000000006,2019/03/15,2019/06/22,PLACE_MONGE_METRO_L7
15598,0102f810031745d0,3G,791,17872,597096,2430658,2.296939,48.874228,2019/03/15,2019/06/22,CDG_ETOILE_METRO_L1
15599,0102f81003174a14,3G,791,18964,600179,2424687,2.338942,48.820571,2019/03/15,2019/06/22,CITE_U_RER_B
15602,0102f81003179c6d,3G,791,40045,601310,2431280,2.354356,48.879824,2019/03/15,2019/06/22,GARE_DU_NORD_METRO_L4
15603,0102f8100317a7cf,3G,791,42959,602485,2431590,2.370368,48.882607,2019/04/21,2019/06/22,JAURES_METRO_L2_5_7BIS
15605,0102f8100317bf00,3G,791,48896,603897,2428884,2.389585,48.85828,2019/03/15,2019/06/22,PHILIPPE_AUGUSTE_METRO_L2
15607,0102f8100317dc07,3G,791,56327,602290,2429668,2.367701,48.865334000000004,2019/03/15,2019/06/22,OBERKAMPF_METRO_L5_L9
15614,0102f81003fabd36,3G,1018,48438,602162,2430135,2.365959,48.869531,2019/03/15,2019/06/22,REPUBLIQUE
15617,0102f81003fb46d2,3G,1019,18130,603010,2431464,2.3775209999999998,48.881471999999995,2019/03/15,2019/06/22,AVENUE_SECRETAN
15620,0102f81003fb6647,3G,1019,26183,603107,2426694,2.378809,48.838602,2019/03/15,2019/06/22,POPB_INDOOR_TRIBUNES
15622,0102f81003fbb971,3G,1019,47473,602623,2426330,2.372217,48.835332,2019/03/15,2019/06/22,OSM_CENTRE_DEMO_OBS_INDOOR
15624,0102f81003fbfe27,3G,1019,65063,601650,2432695,2.358994,48.892540000000004,2019/03/15,2019/06/22,PORTE_DE_LA_CHAPELLE
15629,0102f81004040157,3G,1028,343,599534,2428976,2.3301580000000004,48.859118,2019/03/15,2019/06/22,SEINE_ROYAL
15630,0102f8100404255d,3G,1028,9565,599296,2428961,2.326917,48.858983,2019/03/15,2019/06/22,MUSEE_D'ORSAY_BIS
15631,0102f8100404381c,3G,1028,14364,598030,2428820,2.309673,48.857713000000004,2019/03/15,2019/06/22,LA_TOUR_MAUBOURG
15632,0102f81004045283,3G,1028,21123,597204,2428587,2.298425,48.855616,2019/03/15,2019/06/22,MM_FAN_ZONE_EVENT_1
15633,0102f81004045a79,3G,1028,23161,596305,2427742,2.286188,48.848017,2019/03/15,2019/06/22,EMILE_ZOLA_SECTEUR_1_ET_2
15634,0102f8100404a62c,3G,1028,42540,597030,2427720,2.296061,48.847823,2019/03/15,2019/06/22,LETELLIER
15635,0102f810040512fb,3G,1029,4859,598765,2430480,2.3196790000000003,48.872634000000005,2019/05/26,2019/06/22,OSMSLA_GAN_ASTORG
15638,0102f810040565d7,3G,1029,26071,597913,2430278,2.308072,48.870816,2019/03/15,2019/06/22,PONTHIEU
15639,0102f810040589a4,3G,1029,35236,597723,2430187,2.305484,48.869997999999995,2019/03/15,2019/06/22,MONTAIGNE
15640,0102f8100405ad94,3G,1029,44436,600150,2430401,2.338549,48.871925,2019/03/15,2019/06/22,OSM_BNP_ITALIENS_PROVISOIRE
15641,0102f8100405b812,3G,1029,47122,598866,2429940,2.321057,48.867781,2019/03/15,2019/06/22,BOISSY_D_ANGLAS_BIS
15642,0102f8100405cc37,3G,1029,52279,593665,2429894,2.250204,48.867337,2019/03/15,2019/06/22,HIPPODROME_IDF
15643,0102f8100405e520,3G,1029,58656,599864,2430113,2.334653,48.869337,2019/03/15,2019/06/22,GAILLON_BIS
15644,0102f8100405e5d0,3G,1029,58832,600048,2430580,2.337159,48.873534,2019/03/15,2019/06/22,LAFFITTE
16069,0102f810160f7357,3G,5647,29527,598645,2432108,2.3180389999999997,48.887265,2019/03/15,2019/06/22,BROCHANT
16070,0102f810160ff685,3G,5647,63109,598284,2433218,2.3131150000000003,48.897240000000004,2019/03/15,2019/06/22,STADE_LEON_BIANCOTTO
16071,0102f810160ff6df,3G,5647,63199,599301,2432520,2.326978,48.890969,2019/03/15,2019/06/22,RUE_ETEX
16180,0102f81026fc5d39,3G,9980,23865,601840,2429952,2.3615720000000002,48.867888,2019/03/15,2019/06/22,THE_PHONE_HOUSE_REPUBLIQUE_PDV2
16382,0102f8106204489e,3G,25092,18590,601370,2431380,2.3551729999999997,48.880722999999996,2019/03/15,2019/06/22,GARE_DU_NORD_INDOOR_BIS
16383,0102f81062049f56,3G,25092,40790,599776,2431734,2.333453,48.883905,2019/03/15,2019/06/22,BLANCHE
16384,0102f8106204af93,3G,25092,44947,600144,2433258,2.338468,48.897602,2019/03/15,2019/06/22,BLD_NEY
16386,0102f81062067ccc,3G,25094,31948,599410,2431870,2.328465,48.885127000000004,2019/03/15,2019/06/22,PLACE_PIGALLE_BIS
16391,0102f81062076886,3G,25095,26758,596574,2425818,2.2898669999999997,48.830726,2019/03/15,2019/06/22,PARC_EXPOS_VERS_HALL4_HALL5
16393,0102f8106207a7aa,3G,25095,42922,601647,2424574,2.358922,48.819553000000006,2019/03/15,2019/06/22,SQUARE_BAJAC
16394,0102f8106207e01c,3G,25095,57372,600517,2424723,2.343543,48.820894,2019/03/15,2019/06/22,CITE_UNIVERSITAIRE
16575,0102f81075040195,3G,29956,405,598008,2427398,2.309381,48.844933000000005,2019/03/15,2019/06/22,RUE_DE_STAEL
16576,0102f810750421af,3G,29956,8623,597930,2426620,2.308322,48.83794,2019/03/15,2019/06/22,DUTOT
16577,0102f81075046e3e,3G,29956,28222,600826,2426564,2.347752,48.83744,2019/03/15,2019/06/22,BLD_PORT_ROYAL
16578,0102f8107504abdd,3G,29956,43997,597805,2426399,2.306622,48.835954,2019/03/15,2019/06/22,ORANGE_ALLERAY_1_INDOOR
16579,0102f8107504b933,3G,29956,47411,599628,2426646,2.331441,48.838177,2019/03/15,2019/06/22,CIMETIERE_MONTPARNASSE
16580,0102f8107504c216,3G,29956,49686,599045,2428041,2.3235,48.850714,2019/03/15,2019/06/22,RUE_DU_BAC
17184,8102f810016e3405,4G,1,23999493,598325,2426195,2.313702,48.834122,2019/03/15,2019/06/22,VOUILLE
17186,8102f810016e4f03,4G,1,24006403,598677,2426602,2.318493,48.837781,2019/03/15,2019/06/22,PLACE_DE_CATALOGNE_RE
17188,8102f810016e6806,4G,1,24012806,603385,2430604,2.382625,48.873740999999995,2019/03/15,2019/06/22,BELLEVILLE_SQUARE
17191,8102f810016e7b07,4G,1,24017671,603556,2430908,2.384957,48.876472,2019/03/15,2019/06/22,BUTTES_CHAUMONT
17192,8102f810016e840a,4G,1,24019978,598812,2425935,2.320333,48.831786,2019/03/15,2019/06/22,NOYER_DIDOT
17193,8102f810016e9f0d,4G,1,24026893,596670,2428135,2.291155,48.851551,2019/03/15,2019/06/22,DUPLEIX
17194,8102f810016ebb01,4G,1,24034049,602863,2430242,2.37551,48.870490000000004,2019/03/15,2019/06/22,GONCOURT
17195,8102f810016ec004,4G,1,24035332,595774,2426429,2.27897,48.836213,2019/03/15,2019/06/22,HELIPORT
17197,8102f810016f0405,4G,1,24052741,597723,2430187,2.305484,48.869997999999995,2019/03/15,2019/06/22,MONTAIGNE
17198,8102f810016f0409,4G,1,24052745,597723,2430187,2.305484,48.869997999999995,2019/03/15,2019/06/22,MONTAIGNE
17201,8102f810016f430b,4G,1,24068875,600803,2430443,2.3474459999999997,48.872302000000005,2019/03/15,2019/06/22,PROVENCE_POISSONNIERES
17202,8102f810016f4507,4G,1,24069383,597862,2425401,2.307403,48.826984,2019/03/15,2019/06/22,PORTE_BRANCION
17203,8102f810016f460a,4G,1,24069642,601650,2432695,2.358994,48.892540000000004,2019/03/15,2019/06/22,PORTE_DE_LA_CHAPELLE
17204,8102f810016f510a,4G,1,24072458,598822,2429257,2.320459,48.861643,2019/03/15,2019/06/22,QUAI_ANATOLE_FRANCE
17205,8102f810016f660b,4G,1,24077835,599779,2431531,2.333494,48.882081,2019/03/15,2019/06/22,RUE_CHAPTAL
17206,8102f810016f9c0c,4G,1,24091660,602540,2425330,2.371081,48.826345,2019/04/07,2019/06/22,TOLBIAC
17251,8102f8100173490c,4G,1,24332556,596288,2430066,2.285936,48.868904,2019/03/15,2019/06/22,RAYMOND_POINCARE_BIS
17252,8102f81001735b0d,4G,1,24337165,597369,2430077,2.300662,48.869008,2019/03/15,2019/06/22,PRINCE_GALLES
17266,8102f81001754e03,4G,1,24464899,604440,2427826,2.39697,48.848768,2019/03/15,2019/06/22,NATION_RER_A
17291,8102f81001779007,4G,1,24612871,601945,2425613,2.3629830000000003,48.828891,2019/03/15,2019/06/22,PARC_DE_CHOISY_BIS
17293,8102f81001780402,4G,1,24642562,595026,2427020,2.268779,48.841519,2019/03/15,2019/06/22,INSTITUT_PARIS_V
17295,8102f81001783306,4G,1,24654598,597642,2429780,2.304383,48.86634,2019/03/15,2019/06/22,RUE_TREMOILLE
17303,8102f8100179c002,4G,1,24756226,600729,2429111,2.346435,48.860331,2019/03/15,2019/06/08,CHATELET_METRO_L14
17304,8102f8100179c002,4G,1,24756226,600704,2429102,2.346095,48.86025,2019/06/09,2019/06/22,CHATELET_METRO_L14
17313,8102f810017b6907,4G,1,24865031,602290,2429668,2.367701,48.865334000000004,2019/03/15,2019/06/22,OBERKAMPF_METRO_L5_L9
17724,0102f8100317209b,3G,791,8347,598585,2432911,2.317218,48.894482,2019/03/15,2019/06/22,RERC_P_CLICHY
17727,0102f8100317b753,3G,791,46931,602330,2428352,2.368239,48.853506,2019/03/15,2019/06/22,BASTILLE_METRO_L1
17729,0102f81003186ae8,3G,792,27368,602525,2426585,2.370884,48.837624,2019/03/15,2019/06/22,TUNNEL_GSMR_AUSTERLITZ_GARE
17733,0102f81003fae398,3G,1018,58264,602705,2429562,2.373353,48.864379,2019/03/15,2019/06/22,PASSAGE_BESLAY
17734,0102f81003faf514,3G,1018,62740,601926,2429629,2.362742,48.864984,2019/03/15,2019/06/22,DUPETIT_THOUARS
17737,0102f81003fb6318,3G,1019,25368,603911,2428929,2.389776,48.858684000000004,2019/03/15,2019/06/22,PHILIPPE_AUGUSTE_MENIL
17739,0102f81003fb6b95,3G,1019,27541,604483,2430827,2.3975869999999997,48.875739,2019/03/15,2019/06/22,TELEGRAPHE
17743,0102f81003fbb36b,3G,1019,45931,602373,2427635,2.36882,48.847062,2019/03/15,2019/06/22,BERCY_ROLLIN
17744,0102f81003fbc7e2,3G,1019,51170,603591,2429220,2.38542,48.861302,2019/03/15,2019/06/22,PLACE_METIVIER
17746,0102f81003fbdefa,3G,1019,57082,602477,2425993,2.370227,48.832304,2019/03/15,2019/06/22,BNF_BIS
17747,0102f81003fe0e5a,3G,1022,3674,602666,2426565,2.372804,48.837444,2019/03/15,2019/06/22,QUAI_DE_LA_RAPEE_PROV
17748,0102f81003fedd73,3G,1022,56691,602400,2428059,2.36919,48.850873,2019/03/15,2019/06/22,BASTILLE
17751,0102f81004034988,3G,1027,18824,600570,2429984,2.344271,48.868177,2019/03/15,2019/06/22,RUE_DE_MULHOUSE_BIS
17752,0102f81004046c78,3G,1028,27768,597572,2429257,2.303433,48.861639000000004,2019/03/15,2019/06/22,OSMSLA_AV_RAPP_TDF_RF
17753,0102f810040477f2,3G,1028,30706,597514,2427854,2.302651,48.849028999999994,2019/03/15,2019/06/22,CAMBRONNE
17754,0102f8100404bf0d,3G,1028,48909,597685,2428685,2.304975,48.856499,2019/03/15,2019/06/22,RAPP_BOSQUET_BIS
17755,0102f8100404c0b2,3G,1028,49330,598963,2428838,2.322381,48.857877,2019/03/15,2019/06/22,BELLECHASSE_BIS
17757,0102f810040563c1,3G,1029,25537,598912,2430404,2.321682,48.871951,2019/03/15,2019/06/22,MALESHERBES_ANJOU
17758,0102f81004056648,3G,1029,26184,597190,2430915,2.298218,48.876538000000004,2019/03/15,2019/06/22,OSM_EDF_WAGRAM_PARIS_INDOOR
17759,0102f8100405a4d1,3G,1029,42193,599313,2430058,2.327146,48.868842,2019/03/15,2019/06/22,OSM_EURONEXT_PARIS_INDOOR
17761,0102f8100405e503,3G,1029,58627,597423,2429951,2.301399,48.867876,2019/03/15,2019/06/22,GEORGE_V_1
18199,0102f810160f00a1,3G,5647,161,598223,2431528,2.31229,48.882051000000004,2019/03/15,2019/06/22,LEGENDRE_S_RE
18200,0102f810160f1e2a,3G,5647,7722,598947,2432404,2.3221540000000003,48.889926,2019/03/15,2019/06/22,RUE_LACROIX
18203,0102f81016113ebd,3G,5649,16061,601271,2429800,2.3538200000000002,48.866523,2019/03/15,2019/06/22,REAUMUR_SEBASTOPOL
18204,0102f81016115603,3G,5649,22019,600256,2429783,2.339993,48.866371,2019/03/15,2019/06/22,BANQUE
18205,0102f8101611a05e,3G,5649,41054,601184,2429130,2.352633,48.860501,2019/03/15,2019/06/22,CENTRE_POMPIDOU
18207,0102f810161208e8,3G,5650,2280,594210,2426676,2.257673,48.838421000000004,2019/03/15,2019/06/22,PORTE_DE_ST_CLOUD
18214,0102f810161429be,3G,5652,10686,608497,2425714,2.4521759999999997,48.829746,2019/05/05,2019/06/22,LAC_DES_MINIMES
18489,0102f810620428b4,3G,25092,10420,601068,2431490,2.3510590000000002,48.881712,2019/03/15,2019/06/22,MAGENTA_ROCROY
18491,0102f81062044a00,3G,25092,18944,600536,2433424,2.343811,48.899094,2019/03/15,2019/06/22,FRANCIS_DE_CROISSET
18492,0102f8106204a5e2,3G,25092,42466,601370,2431380,2.3551729999999997,48.880722999999996,2019/03/15,2019/06/22,GARE_DU_NORD_INDOOR_BIS
18494,0102f810620677dc,3G,25094,30684,599012,2431445,2.3230419999999996,48.881307,2019/03/15,2019/06/22,EUROPE_BIS
18496,0102f81062078e1e,3G,25095,36382,597090,2425740,2.2968919999999997,48.830028000000006,2019/03/15,2019/06/22,PORTE_PLAISANCE
18649,0102f810750459e3,3G,29956,23011,599072,2426210,2.323872,48.834258,2019/03/15,2019/06/22,ALESIA_MAINE
18650,0102f8107504dbff,3G,29956,56319,598725,2427069,2.3191450000000002,48.841978000000005,2019/03/15,2019/06/22,HSF_PROVISOIRE
19277,8102f810016dec0a,4G,1,23981066,599732,2429551,2.332855,48.864286,2019/03/15,2019/06/22,COMEDIE_FRANCAISE
19278,8102f810016dfa08,4G,1,23984648,600370,2430798,2.3415470000000003,48.875493,2019/03/15,2019/06/22,NOTRE_DAME_DE_LORETTE
19279,8102f810016e0503,4G,1,23987459,600032,2430392,2.336941,48.871844,2019/03/15,2019/06/22,BNP_OPERA_HANOVRE
19281,8102f810016e2b0c,4G,1,23997196,599473,2428202,2.329328,48.852162,2019/03/15,2019/06/22,CHAISE_RECAMIER
19282,8102f810016e3004,4G,1,23998468,596425,2426616,2.287832,48.837897999999996,2019/03/15,2019/06/22,CIMETIERE_VAUGIRARD
19283,8102f810016e3406,4G,1,23999494,598325,2426195,2.313702,48.834122,2019/03/15,2019/06/22,VOUILLE
19284,8102f810016e3408,4G,1,23999496,598325,2426195,2.313702,48.834122,2019/03/15,2019/06/22,VOUILLE
19285,8102f810016e4502,4G,1,24003842,599530,2425664,2.330108,48.829351,2019/03/15,2019/06/22,AVENUE_DU_GENERAL_LECLERC
19287,8102f810016e6b06,4G,1,24013574,599776,2431734,2.333453,48.883905,2019/03/15,2019/06/22,BLANCHE
19288,8102f810016e7601,4G,1,24016385,595555,2428900,2.275962,48.85842,2019/03/15,2019/06/22,BOULAINVILLIERS
19289,8102f810016e8009,4G,1,24018953,597641,2428538,2.304377,48.855177000000005,2019/03/15,2019/06/22,CHAMPS_DE_MARS_BIS
19290,8102f810016e8406,4G,1,24019974,598812,2425935,2.320333,48.831786,2019/03/15,2019/06/22,NOYER_DIDOT
19291,8102f810016e850b,4G,1,24020235,603618,2428520,2.385782,48.85501,2019/03/15,2019/06/22,CHARONNE
19293,8102f810016ec30a,4G,1,24036106,597536,2430946,2.3029319999999998,48.876818,2019/03/15,2019/06/22,HOCHE
19295,8102f810016ed609,4G,1,24040969,595705,2426744,2.2780270000000002,48.839044,2019/03/15,2019/06/22,JAVEL
19296,8102f810016ed907,4G,1,24041735,596631,2430209,2.290607,48.870191,2019/03/15,2019/06/22,KLEBER
19298,8102f810016f0804,4G,1,24053764,601516,2425047,2.357141,48.823805,2019/03/15,2019/06/22,MOULIN_DE_LA_POINTE
19299,8102f810016f790d,4G,1,24082701,601748,2428581,2.360313,48.855565999999996,2019/03/15,2019/06/22,SAINT_PAUL_IDF
19300,8102f810016f8a0c,4G,1,24087052,600135,2431290,2.338345,48.879915000000004,2019/03/15,2019/06/22,ST_GEORGES_NAVARIN
19319,8102f81001717f02,4G,1,24215298,602262,2414382,2.3672400000000002,48.727945,2019/03/15,2019/06/22,ORLY_SUD_PISTES_OUEST
19325,8102f81001721f06,4G,1,24256262,598417,2432650,2.31493,48.892136,2019/03/15,2019/06/22,PONT_CARDINET
19331,8102f8100172cb07,4G,1,24300295,599674,2427009,2.332067,48.841440000000006,2019/03/15,2019/06/22,MONTPARNASSE_BIS
19332,8102f8100172d308,4G,1,24302344,601638,2431237,2.358825,48.879437,2019/03/15,2019/06/22,MAGENTA_BIS
19334,8102f81001737c0a,4G,1,24345610,604738,2426906,2.401018,48.840497,2019/03/15,2019/06/22,DAUMESNIL
19341,8102f8100174aa05,4G,1,24422917,602726,2425062,2.373611,48.823935999999996,2019/03/15,2019/06/22,REGNAULT
19349,8102f81001754b07,4G,1,24464135,598294,2429911,2.3132650000000003,48.867519,2019/03/15,2019/06/22,CHAMPS_ELYSEES_METRO_L1
19350,8102f81001755502,4G,1,24466690,599045,2429749,2.323496,48.866065,2019/03/15,2019/06/22,CONCORDE_METRO_L1
19364,8102f8100176ae0c,4G,1,24555020,602106,2427772,2.365185,48.848294,2019/03/15,2019/06/22,SCHOMBERG_BIS
19387,8102f810017aa601,4G,1,24815105,600452,2429558,2.342663,48.864349,2019/03/15,2019/06/22,LOUVRE
19394,8102f810017c6d02,4G,1,24931586,603602,2428486,2.3855630000000003,48.854704999999996,2019/03/15,2019/06/22,CHARONNE_METRO_L9
19854,0102f8100317064f,3G,791,1615,600163,2430864,2.338726,48.876086,2019/03/15,2019/06/22,N_D_DE_LORETTE_METRO_L12
19855,0102f81003173f4b,3G,791,16203,598434,2431456,2.315166,48.881405,2019/03/15,2019/06/22,VILLIERS_METRO_L2_3
19856,0102f810031780eb,3G,791,33003,600445,2430301,2.342568,48.871026,2019/03/15,2019/06/22,GRANDS_BOULEVARDS_METRO_L8_L9
19858,0102f81003181d6a,3G,792,7530,602525,2426585,2.370884,48.837624,2019/03/15,2019/06/22,TUNNEL_GSMR_AUSTERLITZ_GARE
19868,0102f81003fa51a0,3G,1018,20896,601958,2430521,2.363182,48.873001,2019/03/15,2019/06/22,JEMMAPES_RICHERAND
19869,0102f81003faa18b,3G,1018,41355,601444,2430469,2.356179,48.872535,2019/03/15,2019/06/22,STRASBOURG_ECURIE
19870,0102f81003fac802,3G,1018,51202,602196,2430990,2.366427,48.877215,2019/03/15,2019/06/22,SQUARE_VARLIN
19872,0102f81003fb0813,3G,1019,2067,604452,2427068,2.397125,48.841955,2019/03/15,2019/06/22,PLACE_FELIX_EBOUE
19874,0102f81003fb2f70,3G,1019,12144,602477,2425993,2.370227,48.832304,2019/03/15,2019/06/22,BNF_BIS
19878,0102f81003fb8f4c,3G,1019,36684,604956,2427758,2.403996,48.848153,2019/03/15,2019/06/22,SQUARE_REJANE_BIS
19880,0102f81003fba142,3G,1019,41282,602190,2425803,2.366319,48.830597,2019/03/15,2019/06/22,PLACE_JEANNE_D_ARC
19881,0102f81003fbbabe,3G,1019,47806,602767,2429091,2.3741950000000003,48.860146,2019/03/15,2019/06/22,VOLTAIRE_MERICOURT
19885,0102f81003ff7b56,3G,1023,31574,604861,2426435,2.402687,48.836263,2019/03/15,2019/06/22,MICHEL_BIZOT
19889,0102f810040352b7,3G,1027,21175,600794,2429227,2.347321,48.861374,2019/03/15,2019/06/22,THE_PHONE_HOUSE_FORUM_PDV1
19890,0102f81004035d2a,3G,1027,23850,599186,2428958,2.325418,48.858956,2019/03/15,2019/06/22,MM_MAISON_POLYTECHNICIENS_2012_EVENT
19891,0102f81004037a41,3G,1027,31297,602377,2427668,2.368875,48.847359000000004,2019/03/15,2019/06/22,AUSTERLITZ
19892,0102f8100404c6a9,3G,1028,50857,597685,2428685,2.304975,48.856499,2019/03/15,2019/06/22,RAPP_BOSQUET_BIS
19894,0102f81004052f22,3G,1029,12066,599722,2429986,2.332718,48.868196000000005,2019/03/15,2019/06/22,DANIELLE_CASANOVA
19895,0102f810040554ed,3G,1029,21741,597429,2430060,2.3014799999999997,48.868854999999996,2019/03/15,2019/06/22,PIERRE_CHARRON
19896,0102f81004056944,3G,1029,26948,597218,2429893,2.298606,48.867354,2019/03/15,2019/06/22,OSM_ORRICK_PARIS_INDOOR
19898,0102f81004056ada,3G,1029,27354,600285,2430365,2.340388,48.871602,2019/03/15,2019/06/22,OSM_GEREC_ALTAREA_PARIS_INDOOR
19899,0102f81004057cda,3G,1029,31962,598822,2429257,2.320459,48.861643,2019/03/15,2019/06/22,QUAI_ANATOLE_FRANCE
19901,0102f81004059bbf,3G,1029,39871,597642,2429780,2.304383,48.86634,2019/03/15,2019/06/22,RUE_TREMOILLE
19902,0102f8100405c1fa,3G,1029,49658,597661,2430662,2.304637,48.874266999999996,2019/03/15,2019/06/22,WASHINGTON
19903,0102f8100405cbe8,3G,1029,52200,598845,2430203,2.32077,48.870145,2019/03/15,2019/06/22,OSMSLA_MADELEINE_RF
20323,0102f810160ffcc0,3G,5647,64704,598417,2432650,2.31493,48.892136,2019/03/15,2019/06/22,PONT_CARDINET
20332,0102f8101614ee00,3G,5652,60928,607662,2426284,2.440819,48.834879,2019/03/15,2019/06/22,OSMSLA_FORT_VINCENNES_RF
20394,0102f81024030d5b,3G,9219,3419,616206,2445832,2.557888,49.010397,2019/03/15,2019/06/22,ROISSY_ZONE_CENTRALE_OUEST
20641,0102f81062029d2b,3G,25090,40235,597297,2429758,2.299684,48.866141,2019/03/15,2019/06/22,MM_AUDI_MARCEAU_2011_EVENT
20642,0102f81062049f9f,3G,25092,40863,601213,2430752,2.353032,48.875079,2019/03/15,2019/06/22,RUE_DE_PARADIS
20644,0102f810620666f5,3G,25094,26357,599172,2430609,2.325224,48.873794000000004,2019/03/15,2019/06/22,MATHURINS
20645,0102f8106206bbd8,3G,25094,48088,599451,2431691,2.329024,48.883519,2019/03/15,2019/06/22,PLACE_PIGALLE
20646,0102f8106206c68b,3G,25094,50827,597869,2431003,2.3074689999999998,48.877332,2019/03/15,2019/06/22,LISBONNE_HAUSSMAN
20647,0102f8106206fffd,3G,25094,65533,599311,2430892,2.327117,48.876338,2019/03/15,2019/06/22,SAINT_LAZARE
20649,0102f81062077790,3G,25095,30608,601459,2425497,2.3563669999999997,48.827849,2019/03/15,2019/06/22,AVENUE_ITALIE
20836,0102f810750423d2,3G,29956,9170,599494,2425958,2.329617,48.831994,2019/03/15,2019/06/22,MOUTON_DUVERNET
20837,0102f810750490d4,3G,29956,37076,600818,2427254,2.347644,48.843641,2019/03/15,2019/06/22,ESTRAPADE
20838,0102f81096fea226,3G,38654,41510,598226,2429767,2.312339,48.866225,2019/03/15,2019/06/22,MM_GP_FIAC_2011_EVENT
21485,8102f810016e340c,4G,1,23999500,598325,2426195,2.313702,48.834122,2019/03/15,2019/06/22,VOUILLE
21486,8102f810016e7607,4G,1,24016391,595555,2428900,2.275962,48.85842,2019/03/15,2019/06/22,BOULAINVILLIERS
21489,8102f810016e8401,4G,1,24019969,598812,2425935,2.320333,48.831786,2019/03/15,2019/06/22,NOYER_DIDOT
21490,8102f810016ec301,4G,1,24036097,597536,2430946,2.3029319999999998,48.876818,2019/03/15,2019/06/22,HOCHE
21491,8102f810016ee00a,4G,1,24043530,603238,2432772,2.3806380000000003,48.893226,2019/03/15,2019/06/22,LA_VILLETTE
21492,8102f810016f0102,4G,1,24051970,604861,2426435,2.402687,48.836263,2019/03/15,2019/06/22,MICHEL_BIZOT
21493,8102f810016f0204,4G,1,24052228,595360,2427813,2.273318,48.848649,2019/03/15,2019/06/22,MOLITOR_EU
21494,8102f810016f0a05,4G,1,24054277,599020,2425620,2.323165,48.828955,2019/03/15,2019/06/22,MOULIN_VERT
21495,8102f810016f1c0b,4G,1,24058891,601616,2426617,2.358508,48.837915,2019/03/15,2019/06/22,PARIS_VI_CHU
21496,8102f810016f3303,4G,1,24064771,604059,2431076,2.391812,48.877978999999996,2019/03/15,2019/06/22,PLACE_DES_FETES
21499,8102f810016f670a,4G,1,24078090,601213,2431314,2.353034,48.88013,2019/03/15,2019/06/22,RUE_DE_COMPIEGNE
21533,8102f81001732b0b,4G,1,24324875,615576,2444884,2.549246,49.001894,2019/03/15,2019/06/22,ROISSY_SERVAIR
21537,8102f8100173850a,4G,1,24347914,597082,2427927,2.296768,48.849684,2019/03/15,2019/06/22,LA_MOTTE_PICQUET
21542,8102f81001747001,4G,1,24408065,600013,2428453,2.3366830000000003,48.854418,2019/03/15,2019/06/22,HOTEL_DES_MONNAIES
21551,8102f81001753c0b,4G,1,24460299,596886,2430774,2.294077,48.87527,2019/03/15,2019/06/22,CDG_ETOILE_RER_A
21570,8102f8100177ee09,4G,1,24636937,598239,2429760,2.312516,48.866162,2019/03/15,2019/06/22,GRAND_PALAIS
21577,8102f8100179d603,4G,1,24761859,599339,2430832,2.327499,48.875797999999996,2019/03/15,2019/06/22,ST_LAZARE_METRO_L12
21578,8102f810017a1507,4G,1,24777991,603772,2429379,2.387887,48.86273,2019/03/15,2019/06/22,PERE_LACHAISE_METRO_L2_3
21587,8102f810017ba508,4G,1,24880392,602525,2426585,2.370884,48.837624,2019/03/15,2019/06/22,TUNNEL_GSMR_AUSTERLITZ_GARE
21588,8102f810017c230f,4G,1,24912655,598585,2432911,2.317218,48.894482,2019/03/15,2019/06/22,RERC_P_CLICHY
21591,8102f810017eac01,4G,1,25078785,603691,2432109,2.386807,48.887265,2019/03/15,2019/06/22,OURCQ_METRO_L5
21593,8102f810017f8103,4G,1,25133315,593638,2427644,2.24987,48.847115,2019/04/14,2019/06/22,MM_MOUSQUETAIRE
22005,0102f81003163484,3G,790,13444,602280,2415080,2.3674880000000003,48.734219,2019/03/15,2019/06/22,ORLY
22021,0102f810031775e6,3G,791,30182,602330,2428352,2.368239,48.853506,2019/03/15,2019/06/22,BASTILLE_METRO_L1
22022,0102f81003179db3,3G,791,40371,598848,2427004,2.32082,48.841394,2019/05/26,2019/06/22,MONTPARNASSE_METRO_L6
22023,0102f8100317bfe8,3G,791,49128,602227,2429451,2.366841,48.863384,2019/03/15,2019/06/22,FILLES_DU_CALVAIRE_METRO_L8
22024,0102f8100317d82e,3G,791,55342,597978,2430070,2.308959,48.868947,2019/03/15,2019/06/22,FRANKLIN_ROOSEVELT_METRO_L1
22025,0102f8100317ee83,3G,791,61059,601813,2430279,2.361205,48.870826,2019/03/15,2019/06/22,JACQUES_BONSERGENT_METRO_L5
22033,0102f81003fa511d,3G,1018,20765,603385,2430604,2.382625,48.873740999999995,2019/03/15,2019/06/22,BELLEVILLE_SQUARE
22034,0102f81003fa57bc,3G,1018,22460,602863,2430242,2.37551,48.870490000000004,2019/03/15,2019/06/22,GONCOURT
22038,0102f81003fb2e77,3G,1019,11895,603018,2428439,2.377609,48.854285,2019/03/15,2019/06/22,RUE_BASFROI
22040,0102f81003fb37e0,3G,1019,14304,603103,2425782,2.378748,48.830405,2019/03/15,2019/06/22,KAFKA
22045,0102f81003fb83db,3G,1019,33755,603690,2426470,2.386745,48.836585,2019/03/15,2019/06/22,GARE_BERCY_BIS
22047,0102f81003fbbe3a,3G,1019,48698,602540,2425330,2.371081,48.826345,2019/03/15,2019/06/22,TOLBIAC
22052,0102f81004047a7c,3G,1028,31356,595705,2426744,2.2780270000000002,48.839044,2019/03/15,2019/06/22,JAVEL
22053,0102f810040488f9,3G,1028,35065,595838,2427355,2.279832,48.844536,2019/03/15,2019/06/22,IMPRIMERIE_NATIONALE
22054,0102f810040517aa,3G,1029,6058,596835,2430267,2.293386,48.870713,2019/03/15,2019/06/22,HOTEL_PENINSULA_PARIS_INDOOR
22055,0102f81004054594,3G,1029,17812,600092,2430097,2.337759,48.869193,2019/03/15,2019/06/22,OPERA_EU
22056,0102f81004056033,3G,1029,24627,596859,2429530,2.293719,48.864089,2019/03/15,2019/06/22,PIERRE_1ER_DE_SERBIE
22057,0102f81004058f54,3G,1029,36692,597094,2430018,2.296916,48.868476,2019/03/15,2019/06/22,BASSANO
22058,0102f81004059957,3G,1029,39255,598258,2430684,2.312771,48.874466,2019/03/15,2019/06/22,BOETIE
22060,0102f8100405d1b4,3G,1029,53684,600311,2429983,2.3407419999999997,48.868169,2019/03/15,2019/06/22,FEYDEAU_BIS
22454,0102f81016115845,3G,5649,22597,601184,2429130,2.352633,48.860501,2019/03/15,2019/06/22,CENTRE_POMPIDOU
22455,0102f8101611bc53,3G,5649,48211,600191,2428707,2.339107,48.856701,2019/03/15,2019/06/22,SEINE_CONTI
22456,0102f8101611f4df,3G,5649,62687,600957,2429139,2.349541,48.860583,2019/03/15,2019/06/22,BERGER
22457,0102f810161221dd,3G,5650,8669,593930,2427705,2.253846,48.847666,2019/03/15,2019/06/22,TPIM_AUTEUIL_BP
22460,0102f81016128ce5,3G,5650,36069,594210,2426676,2.257673,48.838421000000004,2019/03/15,2019/06/22,PORTE_DE_ST_CLOUD
22543,0102f8102403f1cf,3G,9219,61903,615009,2446256,2.5415509999999997,49.014236,2019/03/15,2019/06/22,ROISSY_T1
22761,0102f81062041176,3G,25092,4470,600868,2431201,2.3483330000000002,48.879115000000006,2019/03/15,2019/06/22,SEMARD_CONDORCET
22763,0102f8106204ad8c,3G,25092,44428,600480,2431240,2.3430459999999997,48.879466,2019/03/15,2019/06/22,LA_FAYETTE
22764,0102f8106204bc49,3G,25092,48201,600661,2433114,2.3455150000000002,48.896307,2019/03/15,2019/06/22,ORNANO_KHAN
22765,0102f8106206ddb4,3G,25094,56756,599406,2430716,2.3284119999999997,48.874756,2019/03/15,2019/06/22,EOLE_HAUSSMANN_INDOOR
22766,0102f810620715c7,3G,25095,5575,600661,2425302,2.345504,48.826097999999995,2019/03/15,2019/06/22,BARRAULT
22938,0102f810750406cd,3G,29956,1741,599045,2428041,2.3235,48.850714,2019/03/15,2019/06/22,RUE_DU_BAC
22939,0102f81075040a3c,3G,29956,2620,600348,2427534,2.3412450000000002,48.846158,2019/03/15,2019/06/22,GAY_LUSSAC_BIS
22940,0102f8107504671e,3G,29956,26398,598725,2427069,2.3191450000000002,48.841978000000005,2019/03/15,2019/06/22,HSF_PROVISOIRE
22941,0102f810750470aa,3G,29956,28842,598155,2426790,2.311385,48.839469,2019/03/15,2019/06/22,ARMORIQUE
22942,0102f8107504b6e6,3G,29956,46822,598652,2427881,2.318148,48.849276,2019/03/15,2019/06/22,ROUSSELET
22943,0102f8107504d583,3G,29956,54659,600370,2427136,2.341544,48.842581,2019/03/15,2019/06/22,RUE_DES_FEUILLANTINES
22944,0102f8107504f8b3,3G,29956,63667,597862,2426320,2.307398,48.835244,2019/03/15,2019/06/22,RUE_SAINT_AMAND
23658,8102f810016df408,4G,1,23983112,600593,2430516,2.344585,48.872959,2019/03/15,2019/06/22,BOULE_ROUGE
23659,8102f810016e3205,4G,1,23998981,597609,2427360,2.303948,48.844590000000004,2019/03/15,2019/06/22,UNESCO
23661,8102f810016e6301,4G,1,24011521,597094,2430018,2.296916,48.868476,2019/03/15,2019/06/22,BASSANO
23662,8102f810016e660c,4G,1,24012300,604800,2429759,2.401894,48.866138,2019/03/15,2019/06/22,BELGRAND_TENON
23663,8102f810016e6a05,4G,1,24013317,596268,2429032,2.285672,48.859609999999996,2019/03/15,2019/06/22,BIR_HAKEIM
23664,8102f810016e7c01,4G,1,24017921,604800,2428200,2.4018759999999997,48.852127,2019/03/15,2019/06/22,BUZENVAL
23665,8102f810016e7d03,4G,1,24018179,599007,2432718,2.322971,48.892748,2019/03/15,2019/06/22,CAPITAINE_LAGACHE
23666,8102f810016e800c,4G,1,24018956,597641,2428538,2.304377,48.855177000000005,2019/03/15,2019/06/22,CHAMPS_DE_MARS_BIS
23667,8102f810016ea809,4G,1,24029193,599660,2428578,2.331875,48.855540999999995,2019/03/15,2019/06/22,FAC_DE_MED
23669,8102f810016ec505,4G,1,24036613,603242,2427615,2.3806540000000003,48.846879,2019/03/15,2019/06/22,HOPITAL_SAINT_ANTOINE
23670,8102f810016ee609,4G,1,24045065,599561,2433152,2.330521,48.896649,2019/03/15,2019/06/22,LEIBNITZ
23671,8102f810016f0208,4G,1,24052232,595360,2427813,2.273318,48.848649,2019/03/15,2019/06/22,MOLITOR_EU
23672,8102f810016f190a,4G,1,24058122,601036,2427828,2.3506139999999998,48.8488,2019/03/15,2019/06/22,PARADIS_LATIN
23673,8102f810016f4203,4G,1,24068611,601227,2430112,2.353221,48.869327,2019/03/15,2019/06/22,PORTE_SAINT_DENIS
23674,8102f810016f450b,4G,1,24069387,597862,2425401,2.307403,48.826984,2019/03/15,2019/06/22,PORTE_BRANCION
23676,8102f810016f6009,4G,1,24076297,598829,2431764,2.320548,48.884174,2019/03/15,2019/06/22,ROME
23677,8102f810016f7406,4G,1,24081414,602820,2429786,2.374921,48.866392,2019/03/15,2019/06/22,RUE_ST_MAUR
23678,8102f810016f9d02,4G,1,24091906,595615,2426348,2.276806,48.835484,2019/03/15,2019/06/22,OSM_ATHENA_OF_PARIS_INDOOR
23694,8102f81001716d0b,4G,1,24210699,598155,2426790,2.311385,48.839469,2019/03/15,2019/06/22,ARMORIQUE
23705,8102f8100171f406,4G,1,24245254,602488,2428126,2.370389,48.851473999999996,2019/03/15,2019/06/22,BASTILLE_BIS
23708,8102f81001720c0b,4G,1,24251403,597913,2430278,2.308072,48.870816,2019/03/15,2019/06/22,PONTHIEU
23709,8102f81001721d06,4G,1,24255750,598043,2431410,2.309838,48.880990000000004,2019/03/15,2019/06/22,PARC_MONCEAU_BIS
23721,8102f8100174300b,4G,1,24391691,597459,2431713,2.301878,48.883711,2019/03/15,2019/06/22,PLACE_DU_BRESIL_N_RE
23725,8102f81001746f03,4G,1,24407811,596112,2428750,2.28355,48.857075,2019/03/15,2019/06/22,KENNEDY
23739,8102f81001754401,4G,1,24462337,603103,2425782,2.378748,48.830405,2019/03/15,2019/06/22,KAFKA
23749,8102f8100176420f,4G,1,24527375,615009,2446256,2.5415509999999997,49.014236,2019/03/15,2019/06/22,ROISSY_T1
23750,8102f81001764505,4G,1,24528133,601370,2431380,2.3551729999999997,48.880722999999996,2019/03/15,2019/06/22,GARE_DU_NORD_INDOOR_BIS
23751,8102f81001764e02,4G,1,24530434,602748,2427336,2.373925,48.844373,2019/03/15,2019/06/22,GARE_DE_LYON_INDOOR
23772,8102f8100179f201,4G,1,24769025,597334,2428453,2.300196,48.854411999999996,2019/03/15,2019/06/22,MM_FAN_ZONE_EVENT_3
23775,8102f810017a1106,4G,1,24776966,600730,2429099,2.3464490000000002,48.860223,2019/03/15,2019/06/22,CHATELET_METRO_L7_L11
23776,8102f810017a1309,4G,1,24777481,602625,2427433,2.372251,48.845246,2019/03/15,2019/06/22,GARE_DE_LYON_METRO_L14
23787,8102f810017e6405,4G,1,25060357,603145,2431889,2.379364,48.885290999999995,2019/03/15,2019/06/22,LAUMIERE_METRO_L5
23790,8102f810017f9a01,4G,1,25139713,596848,2430447,2.293562,48.872331,2019/05/12,2019/06/22,OSM_SOPRA_STERIA_IND
24196,0102f81003173c24,3G,791,15396,601564,2430870,2.357815,48.876139,2019/03/15,2019/06/22,GARE_DE_L_EST_METRO_L5
24198,0102f81003174d87,3G,791,19847,601465,2431456,2.356468,48.881405,2019/03/15,2019/06/22,GARE_DU_NORD_METRO_L5
24201,0102f8100317e7a8,3G,791,59304,600730,2429099,2.3464490000000002,48.860223,2019/03/15,2019/06/22,CHATELET_METRO_L7_L11
24202,0102f8100317e95c,3G,791,59740,599408,2430601,2.32844,48.873721999999994,2019/03/15,2019/06/22,HAVRE_CAUMARTIN_METRO_L3
24203,0102f8100317fbc9,3G,791,64457,602625,2427433,2.372251,48.845246,2019/03/15,2019/06/22,GARE_DE_LYON_METRO_L14
24204,0102f81003182a6c,3G,792,10860,599158,2429106,2.325037,48.860286,2019/03/15,2019/06/22,RERC_M_ORSAY
24213,0102f81003fae6bf,3G,1018,59071,602196,2430990,2.366427,48.877215,2019/03/15,2019/06/22,SQUARE_VARLIN
24214,0102f81003fb0cc8,3G,1019,3272,603600,2427878,2.3855310000000003,48.84924,2019/03/15,2019/06/22,FAIDHERBE_CHALIGNY_S_RE
24216,0102f81003fb1bef,3G,1019,7151,603645,2433330,2.38619,48.898239000000004,2019/03/15,2019/06/22,TPIM_BLD_MAC_DONALD_MARECHAUX
24217,0102f81003fb3306,3G,1019,13062,603240,2429165,2.3806380000000003,48.860809,2019/03/15,2019/06/22,SQUARE_GARDETTE
24224,0102f81003fb677b,3G,1019,26491,602389,2432321,2.369064,48.889177000000004,2019/03/15,2019/06/22,MARCHE_RIQUET
24226,0102f81003fb7e56,3G,1019,32342,604199,2427783,2.393687,48.848383,2019/03/15,2019/06/22,LYCEE_ARAGO
24227,0102f81003fb7f92,3G,1019,32658,601639,2428797,2.358829,48.857508,2019/03/15,2019/06/22,ROSIERS_DUVAL
24229,0102f81003fb8a31,3G,1019,35377,602785,2432742,2.374464,48.892959000000005,2019/03/15,2019/06/22,CRIMEE
24230,0102f81003fba0af,3G,1019,41135,603427,2432120,2.383209,48.887366,2019/03/15,2019/06/22,STALINGRAD
24231,0102f81003fbb84b,3G,1019,47179,602669,2428828,2.3728580000000004,48.857783000000005,2019/03/15,2019/06/22,RICHARD_LENOIR_BIS
24235,0102f81003fbfb79,3G,1019,64377,603403,2431760,2.382879,48.88413,2019/03/15,2019/06/22,MAIRIE_DU_19EME
24241,0102f8100402c737,3G,1026,50999,604768,2427791,2.401436,48.848451000000004,2019/03/15,2019/06/22,SQUARE_REJANE_EB
24242,0102f8100402cce1,3G,1026,52449,604768,2427791,2.401436,48.848451000000004,2019/03/15,2019/06/22,SQUARE_REJANE_EB
24243,0102f81004032338,3G,1027,9016,600084,2428368,2.33765,48.853654,2019/03/15,2019/06/22,THE_PHONE_HOUSE_BUCI_PDV2
24245,0102f8100404102f,3G,1028,4143,597572,2429257,2.303433,48.861639000000004,2019/03/15,2019/06/22,OSMSLA_AV_RAPP_TDF_RF
24246,0102f81004047045,3G,1028,28741,599232,2428548,2.326046,48.855271,2019/03/15,2019/06/22,MUSEE_MAILLOL
24247,0102f81004048e90,3G,1028,36496,599350,2428784,2.327652,48.857392,2019/03/15,2019/06/22,BAC_UNIVERSITE
24248,0102f8100404c4ad,3G,1028,50349,597572,2429257,2.303433,48.861639000000004,2019/03/15,2019/06/22,OSMSLA_AV_RAPP_TDF_RF
24249,0102f8100404c6e1,3G,1028,50913,597277,2428971,2.299416,48.859066999999996,2019/03/15,2019/06/22,QUAI_BRANLY
24250,0102f81004051d93,3G,1029,7571,598234,2430231,2.312446,48.870395,2019/03/15,2019/06/22,MATIGNON
24251,0102f81004055203,3G,1029,20995,595615,2426348,2.276806,48.835484,2019/03/15,2019/06/22,OSM_ATHENA_OF_PARIS_INDOOR
24252,0102f8100405591b,3G,1029,22811,599947,2430156,2.335783,48.869723,2019/03/15,2019/06/22,QUATRE_SEPTEMBRE_CHOISEUL
24253,0102f810040573df,3G,1029,29663,596073,2429609,2.283011,48.864795,2019/03/15,2019/06/22,RUE_DE_LA_TOUR
24254,0102f81004058571,3G,1029,34161,599732,2429551,2.332855,48.864286,2019/03/15,2019/06/22,COMEDIE_FRANCAISE
24255,0102f81004059233,3G,1029,37427,599362,2430108,2.327814,48.869292,2019/03/15,2019/06/22,MM_MARIE_CLAIRE_2016_EVENT
24256,0102f8100405a032,3G,1029,41010,598238,2429767,2.312502,48.866225,2019/03/15,2019/06/22,GRAND_PALAIS_INDOOR
24257,0102f8100405fb1b,3G,1029,64283,596441,2429612,2.288024,48.864824,2019/03/15,2019/06/22,RUE_DE_LONGCHAMP
24258,0102f8100405fc29,3G,1029,64553,599574,2429615,2.330702,48.864861,2019/03/15,2019/06/22,COMEDIE_FRANCAISE_BIS
24706,0102f810160f246a,3G,5647,9322,598829,2431764,2.320548,48.884174,2019/03/15,2019/06/22,ROME
24707,0102f810160f5c73,3G,5647,23667,597754,2431610,2.305899,48.882787,2019/03/15,2019/06/22,LYCEE_CARNOT
24708,0102f810160f6867,3G,5647,26727,597125,2430550,2.297335,48.873258,2019/03/15,2019/06/22,TPIM_ETOILE
24709,0102f810160fb4ef,3G,5647,46319,597133,2430586,2.297444,48.873581,2019/03/15,2019/06/22,FRIEDLAND_RE
24710,0102f81016112637,3G,5649,9783,600645,2429029,2.345291,48.859594,2019/03/15,2019/06/22,SAMARITAINE
24711,0102f81016115a5b,3G,5649,23131,601271,2429800,2.3538200000000002,48.866523,2019/03/15,2019/06/22,REAUMUR_SEBASTOPOL
24712,0102f8101611869b,3G,5649,34459,601227,2430112,2.353221,48.869327,2019/03/15,2019/06/22,PORTE_SAINT_DENIS
24772,0102f81024038e71,3G,9219,36465,614998,2446357,2.541404,49.015144,2019/03/15,2019/06/22,ROISSY_1_PROVIS_2_PISTES_ET_PARKINGS
24990,0102f81062023297,3G,25090,12951,599440,2429969,2.3288759999999997,48.868043,2019/03/15,2019/06/22,MM_RITZ_2012_EVENT
24991,0102f81062041055,3G,25092,4181,599779,2431531,2.333494,48.882081,2019/03/15,2019/06/22,RUE_CHAPTAL
24992,0102f81062044930,3G,25092,18736,601133,2432353,2.351946,48.889468,2019/03/15,2019/06/22,CHATEAU_ROUGE
24993,0102f8106206486f,3G,25094,18543,599365,2430254,2.327854,48.870604,2019/03/15,2019/06/22,RUE_DE_SEZE_BIS
24994,0102f8106206506a,3G,25094,20586,598864,2431184,2.321026,48.878961,2019/03/15,2019/06/22,ST_AUGUSTIN_BIS
24995,0102f81062069cbf,3G,25094,40127,599526,2430958,2.330047,48.876931,2019/03/15,2019/06/22,OSM_GOOGLE_PARIS_LONDRES_INDOOR
24996,0102f8106207431f,3G,25095,17183,601647,2424574,2.358922,48.819553000000006,2019/03/15,2019/06/22,SQUARE_BAJAC
24997,0102f810620783d7,3G,25095,33751,599420,2425205,2.328611,48.825226,2019/03/15,2019/06/22,MONTSOURIS
24998,0102f81062079226,3G,25095,37414,599184,2425032,2.325399,48.823671000000004,2019/03/15,2019/06/22,GENERAL_LECLERC_BIS
25000,0102f8106207c80e,3G,25095,51214,596007,2426005,2.282146,48.832404,2019/03/15,2019/06/22,PORTE_DE_SEVRES
25001,0102f8106207f3bb,3G,25095,62395,598447,2425580,2.3153650000000003,48.828595,2019/03/15,2019/06/22,PTE_CHATILLON_BIS
25169,0102f81075045776,3G,29956,22390,599072,2426210,2.323872,48.834258,2019/03/15,2019/06/22,ALESIA_MAINE
25170,0102f81075045cf4,3G,29956,23796,599750,2427870,2.3331009999999996,48.849178,2019/03/15,2019/06/22,OSM_SENAT_BONAPARTE_INDOOR
25171,0102f810750473fe,3G,29956,29694,600640,2427307,2.345221,48.844118,2019/03/15,2019/06/22,ESTRAPADE_EU
25172,0102f8107504adfe,3G,29956,44542,600826,2426564,2.347752,48.83744,2019/03/15,2019/06/22,BLD_PORT_ROYAL
25173,0102f8107504b8e7,3G,29956,47335,599214,2427497,2.325803,48.845825,2019/03/15,2019/06/22,FNAC_MONTPARNASSE_PDV1
25174,0102f8107504e8bc,3G,29956,59580,599621,2427887,2.331344,48.849331,2019/03/15,2019/06/22,BOSSUET_MICRO
25789,8102f810016dfc02,4G,1,23985154,599311,2430892,2.327117,48.876338,2019/03/15,2019/06/22,SAINT_LAZARE
25792,8102f810016e3c0d,4G,1,24001549,599420,2425205,2.328611,48.825226,2019/03/15,2019/06/22,MONTSOURIS
25793,8102f810016e5f0b,4G,1,24010507,602805,2430692,2.374723,48.874534999999995,2019/03/15,2019/06/22,AVENUE_VELLEFAUX
25795,8102f810016e8601,4G,1,24020481,601133,2432353,2.351946,48.889468,2019/03/15,2019/06/22,CHATEAU_ROUGE
25797,8102f810016ea702,4G,1,24028930,594429,2427296,2.260647,48.843995,2019/03/15,2019/06/22,EXELMANS
25798,8102f810016eba01,4G,1,24033793,600837,2426213,2.347901,48.834284999999994,2019/03/15,2019/06/22,LES_GOBELINS
25799,8102f810016f0502,4G,1,24052994,603788,2427391,2.388087,48.844862,2019/03/15,2019/06/22,MONTGALLET
25800,8102f810016f1309,4G,1,24056585,597572,2429257,2.303433,48.861639000000004,2019/03/15,2019/06/22,OSMSLA_AV_RAPP_TDF_RF
25801,8102f810016f1f0a,4G,1,24059658,600965,2430020,2.349652,48.868501,2019/03/15,2019/06/22,PASSAGE_DE_CLERY
25802,8102f810016f3b02,4G,1,24066818,601992,2427008,2.363629,48.841428,2019/03/15,2019/06/22,PONT_DE_TOLBIAC_BIS
25803,8102f810016f5a07,4G,1,24074759,602162,2430135,2.365959,48.869531,2019/03/15,2019/06/22,REPUBLIQUE
25804,8102f810016f8f0b,4G,1,24088331,600950,2425136,2.349437,48.824606,2019/03/15,2019/06/22,STADE_CHARLETY
25805,8102f810016f9403,4G,1,24089603,603427,2432120,2.383209,48.887366,2019/03/15,2019/06/22,STALINGRAD
25806,8102f810016f9e06,4G,1,24092166,602634,2427136,2.372371,48.842576,2019/03/15,2019/06/22,VAN_GOGH_2
25848,8102f8100173eb0c,4G,1,24374028,597106,2430583,2.2970759999999997,48.873554,2019/03/15,2019/06/22,CDG_ETOILE_METRO_FRIEDLAND
25861,8102f81001754e06,4G,1,24464902,604440,2427826,2.39697,48.848768,2019/03/15,2019/06/22,NATION_RER_A
25881,8102f8100176c301,4G,1,24560385,600179,2424687,2.338942,48.820571,2019/03/15,2019/06/22,CITE_U_RER_B
25902,8102f8100179f304,4G,1,24769284,597334,2428453,2.300196,48.854411999999996,2019/03/15,2019/06/22,MM_FAN_ZONE_EVENT_3
25906,8102f810017b5201,4G,1,24859137,597839,2426341,2.307085,48.835432,2019/03/15,2019/06/22,OSM_ROBOTS_ATS_ST_LAMBERT
25907,8102f810017bd70a,4G,1,24893194,599807,2429747,2.333876,48.866048,2019/03/15,2019/06/22,PYRAMIDES_METRO_L14
25908,8102f810017c4001,4G,1,24920065,599297,2425551,2.326936,48.828336,2019/03/15,2019/06/22,ALESIA_METRO_L4
25914,8102f810017dce01,4G,1,25021953,600785,2428537,2.347197,48.855171999999996,2019/03/15,2019/06/22,CITE_METRO_L4
25916,8102f810017f5b04,4G,1,25123588,600161,2432399,2.338699,48.889882,2019/03/15,2019/06/22,LAMARCK_CAULAINCOURT_METRO_L12
26363,0102f810031753ce,3G,791,21454,599210,2430198,2.325743,48.8701,2019/03/15,2019/06/22,MADELEINE_METRO_L8_L12
26364,0102f81003176e63,3G,791,28259,603497,2427620,2.3841259999999997,48.846922,2019/03/15,2019/06/22,REUILLY_DIDEROT_METRO_L1
26365,0102f81003178bcb,3G,791,35787,599339,2430832,2.327499,48.875797999999996,2019/03/15,2019/06/22,ST_LAZARE_METRO_L12
26366,0102f81003178d55,3G,791,36181,602625,2427433,2.372251,48.845246,2019/03/15,2019/06/22,GARE_DE_LYON_METRO_L14
26368,0102f8100317dd7b,3G,791,56699,599210,2430198,2.325743,48.8701,2019/03/15,2019/06/22,MADELEINE_METRO_L8_L12
26369,0102f8100317ea87,3G,791,60039,604281,2427744,2.394804,48.848032,2019/03/15,2019/06/22,NATION_METRO_L1_2_6
26375,0102f81003fb2dfc,3G,1019,11772,601437,2428113,2.356076,48.851361,2019/03/15,2019/06/22,SAINT_LOUIS_MICRO
26376,0102f81003fb349f,3G,1019,13471,603935,2431959,2.3901310000000002,48.885915999999995,2019/03/15,2019/06/22,PORTE_CHAUMONT
26377,0102f81003fb39e7,3G,1019,14823,604658,2428540,2.399946,48.855183000000004,2019/03/15,2019/06/22,TERRE_NEUVE
26379,0102f81003fb684b,3G,1019,26699,604022,2429802,2.391296,48.86653,2019/03/15,2019/06/22,MENILMONTANT
26380,0102f81003fb75af,3G,1019,30127,601228,2426572,2.353225,48.837511,2019/03/15,2019/06/22,BLD_ST_MARCEL
26382,0102f81003fb9695,3G,1019,38549,603427,2432120,2.383209,48.887366,2019/03/15,2019/06/22,STALINGRAD
26383,0102f81003fba022,3G,1019,40994,604059,2431076,2.391812,48.877978999999996,2019/03/15,2019/06/22,PLACE_DES_FETES
26384,0102f81003fba3f7,3G,1019,41975,603040,2427430,2.377902,48.845217,2019/03/15,2019/06/22,BLD_DIDEROT
26389,0102f81003fbf2cf,3G,1019,62159,601733,2432279,2.3601229999999997,48.888801,2019/03/15,2019/06/22,MARX_DORMOY
26390,0102f81003fbf384,3G,1019,62340,603193,2428929,2.379996,48.858688,2019/03/15,2019/06/22,BLUM_ROQUETTE
26392,0102f8100404104f,3G,1028,4175,597165,2427422,2.297901,48.845145,2019/03/15,2019/06/22,MEILHAC
26393,0102f810040417cc,3G,1028,6092,598365,2428296,2.314238,48.853004999999996,2019/03/15,2019/06/22,BRETEUIL_BIS
26394,0102f810040501c9,3G,1029,457,598508,2429119,2.316183,48.860402,2019/03/15,2019/06/22,ASSEMBLEE_NATIONALE
26396,0102f810040593c3,3G,1029,37827,599315,2429839,2.3271740000000003,48.866873999999996,2019/03/15,2019/06/22,OSM_MANDARIN_ORIENTAL
26397,0102f8100405af1b,3G,1029,44827,597536,2430946,2.3029319999999998,48.876818,2019/03/15,2019/06/22,HOCHE
26813,0102f810160f259e,3G,5647,9630,597125,2430550,2.297335,48.873258,2019/03/15,2019/06/22,TPIM_ETOILE
26814,0102f810160facf9,3G,5647,44281,598284,2433218,2.3131150000000003,48.897240000000004,2019/03/15,2019/06/22,STADE_LEON_BIANCOTTO
26816,0102f810160fba7c,3G,5647,47740,598043,2431410,2.309838,48.880990000000004,2019/03/15,2019/06/22,PARC_MONCEAU_BIS
26817,0102f810160fd6e2,3G,5647,55010,597459,2431713,2.301878,48.883711,2019/03/15,2019/06/22,PLACE_DU_BRESIL_N_RE
26818,0102f8101611002d,3G,5649,45,601283,2428800,2.35398,48.857535,2019/03/15,2019/06/22,BHV_ST_GERVAIS
26825,0102f8101612fbd2,3G,5650,64466,593638,2427644,2.24987,48.847115,2019/04/28,2019/06/22,MM_MOUSQUETAIRE
27126,0102f8106202464b,3G,25090,17995,598226,2429767,2.312339,48.866225,2019/03/15,2019/06/22,MM_GP_FIAC_2012_EVENT
27130,0102f810620460ff,3G,25092,24831,600326,2431915,2.340948,48.885532,2019/03/15,2019/06/22,SQUARE_WILLETTE
27131,0102f81062049bd2,3G,25092,39890,600564,2432197,2.3441919999999996,48.888065999999995,2019/03/15,2019/06/22,LAMARCK_ALBERT
27132,0102f8106206003c,3G,25094,60,599311,2430892,2.327117,48.876338,2019/03/15,2019/06/22,SAINT_LAZARE
27133,0102f81062064d74,3G,25094,19828,599356,2430479,2.327731,48.872626000000004,2019/03/15,2019/06/22,MAUROY_SEZE_BIS
27134,0102f810620651ff,3G,25094,20991,598081,2430958,2.3103580000000004,48.876928,2019/03/15,2019/06/22,HAUSSMAN_TER
27135,0102f810620690b6,3G,25094,37046,598864,2431184,2.321026,48.878961,2019/03/15,2019/06/22,ST_AUGUSTIN_BIS
27136,0102f8106206d14e,3G,25094,53582,599012,2431445,2.3230419999999996,48.881307,2019/03/15,2019/06/22,EUROPE_BIS
27137,0102f81062072057,3G,25095,8279,596129,2425955,2.283808,48.831955,2019/03/15,2019/06/22,PARC_EXPOS_HALL_1_INDOOR
27311,0102f810750422ee,3G,29956,8942,600380,2426120,2.341679,48.83345,2019/03/15,2019/06/22,AUGUSTE_BLANQUI
27312,0102f8107504a404,3G,29956,41988,600826,2426564,2.347752,48.83744,2019/03/15,2019/06/22,BLD_PORT_ROYAL
27313,0102f8107504b236,3G,29956,45622,598738,2427074,2.319322,48.842023,2019/03/15,2019/06/22,GARE_MONTPARNASSE_TER
27314,0102f8107504bef1,3G,29956,48881,600253,2426453,2.33995,48.836443,2019/03/15,2019/06/22,CASSINI_PROV
27315,0102f8107504c3d6,3G,29956,50134,598738,2427074,2.319322,48.842023,2019/03/15,2019/06/22,GARE_MONTPARNASSE_TER
27316,0102f8107504da46,3G,29956,55878,598714,2426210,2.318998,48.834258,2019/03/15,2019/06/22,PERNETY
27319,0102f81096000446,3G,38400,1094,592343,2428818,2.232214,48.857652,2019/03/15,2019/06/22,MM_SOLYDAYS_LONGCHP_10_EVENT
27945,8102f810016df20b,4G,1,23982603,599172,2430609,2.325224,48.873794000000004,2019/03/15,2019/06/22,MATHURINS
27946,8102f810016dfc08,4G,1,23985160,599311,2430892,2.327117,48.876338,2019/03/15,2019/06/22,SAINT_LAZARE
27947,8102f810016dfe0b,4G,1,23985675,598258,2430684,2.312771,48.874466,2019/03/15,2019/06/22,BOETIE
27948,8102f810016e3505,4G,1,23999749,596566,2426046,2.289756,48.832775,2019/03/15,2019/06/22,CROIX_NIVERT
27949,8102f810016e3709,4G,1,24000265,599232,2428548,2.326046,48.855271,2019/03/15,2019/06/22,MUSEE_MAILLOL
27950,8102f810016e5e02,4G,1,24010242,603010,2431464,2.3775209999999998,48.881471999999995,2019/03/15,2019/06/22,AVENUE_SECRETAN
27952,8102f810016e7b05,4G,1,24017669,603556,2430908,2.384957,48.876472,2019/03/15,2019/06/22,BUTTES_CHAUMONT
27954,8102f810016e9401,4G,1,24024065,596707,2427380,2.291665,48.844766,2019/03/15,2019/06/22,COMMERCE
27955,8102f810016e9c07,4G,1,24026119,596125,2429224,2.283723,48.861335,2019/03/15,2019/06/22,DOUMER
27958,8102f810016ef605,4G,1,24049157,603403,2431760,2.382879,48.88413,2019/03/15,2019/06/22,MAIRIE_DU_19EME
27959,8102f810016efe0c,4G,1,24051212,597165,2427422,2.297901,48.845145,2019/03/15,2019/06/22,MEILHAC
27961,8102f810016f0406,4G,1,24052742,597723,2430187,2.305484,48.869997999999995,2019/03/15,2019/06/22,MONTAIGNE
27962,8102f810016f2802,4G,1,24061954,597429,2430060,2.3014799999999997,48.868854999999996,2019/03/15,2019/06/22,PIERRE_CHARRON
27964,8102f810016f570b,4G,1,24073995,601271,2429800,2.3538200000000002,48.866523,2019/03/15,2019/06/22,REAUMUR_SEBASTOPOL
27965,8102f810016f9107,4G,1,24088839,604146,2432238,2.393009,48.888422,2019/03/15,2019/06/22,STADE_LADOUMEGUE
27966,8102f810016fa906,4G,1,24094982,603440,2428170,2.383355,48.851865999999994,2019/03/15,2019/06/22,FAIDHERBE_CHALIGNY
27967,8102f810016fd302,4G,1,24105730,598557,2432712,2.316838,48.892693,2019/03/15,2019/06/22,PONT_CARDINET_EU
27995,8102f81001721c06,4G,1,24255494,596470,2429849,2.288417,48.866954,2019/03/15,2019/06/22,LIGUE_FOOT
27996,8102f81001724d08,4G,1,24268040,603957,2431463,2.3904259999999997,48.881458,2019/03/15,2019/06/22,DANUBE
28004,8102f81001735b02,4G,1,24337154,597369,2430077,2.300662,48.869008,2019/03/15,2019/06/22,PRINCE_GALLES
28005,8102f8100173850c,4G,1,24347916,597082,2427927,2.296768,48.849684,2019/03/15,2019/06/22,LA_MOTTE_PICQUET
28007,8102f8100173e005,4G,1,24371205,600037,2426831,2.33701,48.83984,2019/03/15,2019/06/22,PORT_ROYAL_RER_B
28009,8102f81001741a0c,4G,1,24386060,608497,2425714,2.4521759999999997,48.829746,2019/03/15,2019/06/22,LAC_DES_MINIMES
28057,8102f8100179c301,4G,1,24756993,600990,2431715,2.349996,48.883734000000004,2019/03/15,2019/06/22,BARBES_METRO_L4
28064,8102f810017b3205,4G,1,24850949,597212,2427837,2.298538,48.848875,2019/03/15,2019/06/22,LA_MOTTE_PICQUET_METRO_L6_8_10
28077,8102f810017f1f0f,4G,1,25108239,600803,2430443,2.3474459999999997,48.872302000000005,2019/03/15,2019/06/22,PROVENCE_POISSONNIERES
28491,0102f81003143fc5,3G,788,16325,600765,2429040,2.346926,48.859693,2019/03/15,2019/06/22,CHATELET_METRO_L1
28510,0102f81003176290,3G,791,25232,598999,2431176,2.322866,48.878890000000006,2019/03/15,2019/06/22,EUROPE_METRO_L3
28511,0102f81003176ee6,3G,791,28390,602290,2429668,2.367701,48.865334000000004,2019/03/15,2019/06/22,OBERKAMPF_METRO_L5_L9
